{
"type": "FeatureCollection",
"crs": { "type": "name", "properties": { "name": "urn:ogc:def:crs:OGC:1.3:CRS84" } },
                                                                                
"features": [
{ "type": "Feature", "properties": { "sid": 15, "code": 16, "name": "Чистопрудный б-р (ст.м.Чистые пруды)", "slots": 10, "subway_distance": 36, "district": 266, "departures": 6407, "arrivals": 6008, "in_out": 107.000000, "roundtrips": 18, "average": 42, "average_per_slot": 1.100000, "unique_rides": 44, "start": "2015-05-01 00:26:21", "start_month": 5, "lat": 55.764719, "lon": 37.639141 }, "geometry": { "type": "Point", "coordinates": [ 37.639141, 55.764719 ] } },
{ "type": "Feature", "properties": { "sid": 16, "code": 17, "name": "Чистопрудный б-р (напротив  д.8, стр.1)", "slots": 8, "subway_distance": 207, "district": 266, "departures": 2846, "arrivals": 2498, "in_out": 114.000000, "roundtrips": 21, "average": 19, "average_per_slot": 1.100000, "unique_rides": 53, "start": "2015-05-01 17:26:26", "start_month": 5, "lat": 55.763620, "lon": 37.641142 }, "geometry": { "type": "Point", "coordinates": [ 37.641142, 55.76362 ] } },
{ "type": "Feature", "properties": { "sid": 17, "code": 18, "name": "Чистопрудный б-р (напротив д.12, стр.1)", "slots": 14, "subway_distance": 663, "district": 266, "departures": 6606, "arrivals": 6382, "in_out": 104.000000, "roundtrips": 21, "average": 43, "average_per_slot": 1.000000, "unique_rides": 40, "start": "2015-05-01 09:59:17", "start_month": 5, "lat": 55.760306, "lon": 37.645530 }, "geometry": { "type": "Point", "coordinates": [ 37.64553, 55.760306 ] } },
{ "type": "Feature", "properties": { "sid": 18, "code": 19, "name": "Покровский б-р (напротив д.8, стр.1)", "slots": 8, "subway_distance": 708, "district": 266, "departures": 1868, "arrivals": 1740, "in_out": 107.000000, "roundtrips": 22, "average": 12, "average_per_slot": 1.100000, "unique_rides": 44, "start": "2015-05-01 17:24:51", "start_month": 5, "lat": 55.757313, "lon": 37.647211 }, "geometry": { "type": "Point", "coordinates": [ 37.647211, 55.757313 ] } },
{ "type": "Feature", "properties": { "sid": 19, "code": 20, "name": "Покровский б-р (напротив д.12, стр.1)", "slots": 8, "subway_distance": 620, "district": 266, "departures": 1622, "arrivals": 1502, "in_out": 108.000000, "roundtrips": 19, "average": 11, "average_per_slot": 1.100000, "unique_rides": 53, "start": "2015-05-01 12:57:04", "start_month": 5, "lat": 55.755462, "lon": 37.648355 }, "geometry": { "type": "Point", "coordinates": [ 37.648355, 55.755462 ] } },
{ "type": "Feature", "properties": { "sid": 20, "code": 21, "name": "Покровский б-р (напротив д.18, стр.18)", "slots": 8, "subway_distance": 740, "district": 266, "departures": 2431, "arrivals": 2446, "in_out": 99.000000, "roundtrips": 22, "average": 16, "average_per_slot": 1.000000, "unique_rides": 51, "start": "2015-05-01 03:50:20", "start_month": 5, "lat": 55.753328, "lon": 37.647350 }, "geometry": { "type": "Point", "coordinates": [ 37.64735, 55.753328 ] } },
{ "type": "Feature", "properties": { "sid": 21, "code": 22, "name": "Москворецкая наб., д.2А, стр.1", "slots": 12, "subway_distance": 633, "district": 146, "departures": 3284, "arrivals": 3500, "in_out": 94.000000, "roundtrips": 20, "average": 21, "average_per_slot": 0.900000, "unique_rides": 53, "start": "2015-05-01 18:14:05", "start_month": 5, "lat": 55.748139, "lon": 37.638839 }, "geometry": { "type": "Point", "coordinates": [ 37.638839, 55.748139 ] } },
{ "type": "Feature", "properties": { "sid": 22, "code": 23, "name": "Москворецкая наб., д.9, стр.2", "slots": 12, "subway_distance": 369, "district": 146, "departures": 1797, "arrivals": 1974, "in_out": 91.000000, "roundtrips": 20, "average": 12, "average_per_slot": 0.900000, "unique_rides": 76, "start": "2015-05-01 20:12:03", "start_month": 5, "lat": 55.749635, "lon": 37.632794 }, "geometry": { "type": "Point", "coordinates": [ 37.632794, 55.749635 ] } },
{ "type": "Feature", "properties": { "sid": 23, "code": 24, "name": "Пречистенская наб., д.45\/1, стр.2А", "slots": 12, "subway_distance": 255, "district": 131, "departures": 4657, "arrivals": 4823, "in_out": 97.000000, "roundtrips": 22, "average": 31, "average_per_slot": 1.000000, "unique_rides": 64, "start": "2015-05-01 12:36:21", "start_month": 5, "lat": 55.745976, "lon": 37.609394 }, "geometry": { "type": "Point", "coordinates": [ 37.609394, 55.745976 ] } },
{ "type": "Feature", "properties": { "sid": 24, "code": 25, "name": "Пречистенская наб., д.15, стр.1 (у Патриаршего моста)", "slots": 12, "subway_distance": 235, "district": 131, "departures": 3135, "arrivals": 3391, "in_out": 92.000000, "roundtrips": 21, "average": 21, "average_per_slot": 0.900000, "unique_rides": 69, "start": "2015-05-01 10:56:19", "start_month": 5, "lat": 55.744500, "lon": 37.608481 }, "geometry": { "type": "Point", "coordinates": [ 37.608481, 55.7445 ] } },
{ "type": "Feature", "properties": { "sid": 25, "code": 26, "name": "ул. Волхонка, д.14, стр. 6 (Пушкинский музей)", "slots": 12, "subway_distance": 70, "district": 131, "departures": 3049, "arrivals": 3075, "in_out": 99.000000, "roundtrips": 22, "average": 20, "average_per_slot": 1.000000, "unique_rides": 62, "start": "2015-05-01 14:29:47", "start_month": 5, "lat": 55.746428, "lon": 37.605561 }, "geometry": { "type": "Point", "coordinates": [ 37.605561, 55.746428 ] } },
{ "type": "Feature", "properties": { "sid": 26, "code": 27, "name": "ул. Большая Никитская (напротив д.13)", "slots": 12, "subway_distance": 490, "district": 147, "departures": 1758, "arrivals": 1752, "in_out": 100.000000, "roundtrips": 24, "average": 16, "average_per_slot": 1.000000, "unique_rides": 46, "start": "2015-05-01 01:06:54", "start_month": 5, "lat": 55.756744, "lon": 37.604770 }, "geometry": { "type": "Point", "coordinates": [ 37.60477, 55.756744 ] } },
{ "type": "Feature", "properties": { "sid": 27, "code": 28, "name": "ул. Моховая, д.11", "slots": 12, "subway_distance": 267, "district": 155, "departures": 4557, "arrivals": 4780, "in_out": 95.000000, "roundtrips": 20, "average": 30, "average_per_slot": 1.000000, "unique_rides": 62, "start": "2015-05-01 00:49:51", "start_month": 5, "lat": 55.754864, "lon": 37.612264 }, "geometry": { "type": "Point", "coordinates": [ 37.612264, 55.754864 ] } },
{ "type": "Feature", "properties": { "sid": 28, "code": 29, "name": "ул. Тверская, д.8", "slots": 20, "subway_distance": 351, "district": 155, "departures": 3244, "arrivals": 2928, "in_out": 111.000000, "roundtrips": 22, "average": 21, "average_per_slot": 1.100000, "unique_rides": 53, "start": "2015-05-01 15:11:50", "start_month": 5, "lat": 55.762079, "lon": 37.609620 }, "geometry": { "type": "Point", "coordinates": [ 37.60962, 55.762079 ] } },
{ "type": "Feature", "properties": { "sid": 29, "code": 30, "name": "Камергерский пер., д.4", "slots": 14, "subway_distance": 274, "district": 155, "departures": 4296, "arrivals": 4421, "in_out": 97.000000, "roundtrips": 22, "average": 28, "average_per_slot": 1.000000, "unique_rides": 55, "start": "2015-05-01 00:11:44", "start_month": 5, "lat": 55.759361, "lon": 37.612442 }, "geometry": { "type": "Point", "coordinates": [ 37.612442, 55.759361 ] } },
{ "type": "Feature", "properties": { "sid": 30, "code": 31, "name": "ул. Большая Дмитровка, д.2", "slots": 12, "subway_distance": 75, "district": 155, "departures": 2786, "arrivals": 3118, "in_out": 89.000000, "roundtrips": 24, "average": 18, "average_per_slot": 0.900000, "unique_rides": 58, "start": "2015-05-01 00:28:46", "start_month": 5, "lat": 55.759165, "lon": 37.616547 }, "geometry": { "type": "Point", "coordinates": [ 37.616547, 55.759165 ] } },
{ "type": "Feature", "properties": { "sid": 31, "code": 32, "name": "ул. Большая Дмитровка, д.5\/6, стр.5", "slots": 12, "subway_distance": 161, "district": 155, "departures": 2288, "arrivals": 2549, "in_out": 90.000000, "roundtrips": 22, "average": 15, "average_per_slot": 0.900000, "unique_rides": 58, "start": "2015-05-01 19:15:06", "start_month": 5, "lat": 55.759865, "lon": 37.615807 }, "geometry": { "type": "Point", "coordinates": [ 37.615807, 55.759865 ] } },
{ "type": "Feature", "properties": { "sid": 32, "code": 33, "name": "Столешников пер. (напротив д.11)", "slots": 10, "subway_distance": 476, "district": 155, "departures": 2850, "arrivals": 2938, "in_out": 97.000000, "roundtrips": 21, "average": 19, "average_per_slot": 1.000000, "unique_rides": 48, "start": "2015-05-01 19:01:47", "start_month": 5, "lat": 55.763147, "lon": 37.617189 }, "geometry": { "type": "Point", "coordinates": [ 37.617189, 55.763147 ] } },
{ "type": "Feature", "properties": { "sid": 33, "code": 35, "name": "ул. Кузнецкий мост, д.13\/9, стр.1", "slots": 18, "subway_distance": 97, "district": 24, "departures": 5279, "arrivals": 5331, "in_out": 99.000000, "roundtrips": 23, "average": 35, "average_per_slot": 1.000000, "unique_rides": 54, "start": "2015-05-01 09:39:26", "start_month": 5, "lat": 55.761917, "lon": 37.622831 }, "geometry": { "type": "Point", "coordinates": [ 37.622831, 55.761917 ] } },
{ "type": "Feature", "properties": { "sid": 34, "code": 36, "name": "Варсонофьевский пер., д.12", "slots": 12, "subway_distance": 318, "district": 24, "departures": 1344, "arrivals": 1270, "in_out": 106.000000, "roundtrips": 20, "average": 12, "average_per_slot": 1.100000, "unique_rides": 51, "start": "2015-06-10 23:15:06", "start_month": 6, "lat": 55.763252, "lon": 37.628345 }, "geometry": { "type": "Point", "coordinates": [ 37.628345, 55.763252 ] } },
{ "type": "Feature", "properties": { "sid": 35, "code": 38, "name": "ул. Маросейка, д.19", "slots": 12, "subway_distance": 260, "district": 266, "departures": 5004, "arrivals": 4990, "in_out": 100.000000, "roundtrips": 19, "average": 33, "average_per_slot": 1.000000, "unique_rides": 48, "start": "2015-05-01 15:15:58", "start_month": 5, "lat": 55.757758, "lon": 37.636136 }, "geometry": { "type": "Point", "coordinates": [ 37.636136, 55.757758 ] } },
{ "type": "Feature", "properties": { "sid": 36, "code": 39, "name": "ул. Покровка, д.7\/9-11", "slots": 22, "subway_distance": 688, "district": 266, "departures": 4139, "arrivals": 3839, "in_out": 108.000000, "roundtrips": 18, "average": 27, "average_per_slot": 1.100000, "unique_rides": 46, "start": "2015-05-01 00:31:45", "start_month": 5, "lat": 55.759038, "lon": 37.642574 }, "geometry": { "type": "Point", "coordinates": [ 37.642574, 55.759038 ] } },
{ "type": "Feature", "properties": { "sid": 37, "code": 40, "name": "ул. Солянка (напротив д.8)", "slots": 12, "subway_distance": 219, "district": 146, "departures": 2240, "arrivals": 2452, "in_out": 91.000000, "roundtrips": 22, "average": 15, "average_per_slot": 0.900000, "unique_rides": 64, "start": "2015-05-01 14:36:33", "start_month": 5, "lat": 55.752753, "lon": 37.638475 }, "geometry": { "type": "Point", "coordinates": [ 37.638475, 55.752753 ] } },
{ "type": "Feature", "properties": { "sid": 38, "code": 41, "name": "Лубянский пр., д. 27\/1, стр.1 (ст.м.Китай-город)", "slots": 8, "subway_distance": 24, "district": 266, "departures": 3568, "arrivals": 3725, "in_out": 96.000000, "roundtrips": 21, "average": 23, "average_per_slot": 1.000000, "unique_rides": 61, "start": "2015-05-01 00:07:59", "start_month": 5, "lat": 55.753925, "lon": 37.635106 }, "geometry": { "type": "Point", "coordinates": [ 37.635106, 55.753925 ] } },
{ "type": "Feature", "properties": { "sid": 39, "code": 43, "name": "Большой Патриарший пер., д.7", "slots": 12, "subway_distance": 673, "district": 147, "departures": 4250, "arrivals": 4205, "in_out": 101.000000, "roundtrips": 28, "average": 28, "average_per_slot": 1.000000, "unique_rides": 45, "start": "2015-05-01 00:32:59", "start_month": 5, "lat": 55.763584, "lon": 37.593110 }, "geometry": { "type": "Point", "coordinates": [ 37.59311, 55.763584 ] } },
{ "type": "Feature", "properties": { "sid": 40, "code": 44, "name": "Благовещенский пер., д.1", "slots": 12, "subway_distance": 318, "district": 155, "departures": 1011, "arrivals": 976, "in_out": 104.000000, "roundtrips": 25, "average": 7, "average_per_slot": 1.000000, "unique_rides": 48, "start": "2015-05-01 10:32:00", "start_month": 5, "lat": 55.766467, "lon": 37.596492 }, "geometry": { "type": "Point", "coordinates": [ 37.596492, 55.766467 ] } },
{ "type": "Feature", "properties": { "sid": 41, "code": 45, "name": "ул. Тверская, д.24, стр.1", "slots": 12, "subway_distance": 234, "district": 155, "departures": 2365, "arrivals": 2063, "in_out": 115.000000, "roundtrips": 18, "average": 15, "average_per_slot": 1.100000, "unique_rides": 56, "start": "2015-05-01 15:28:14", "start_month": 5, "lat": 55.768055, "lon": 37.599603 }, "geometry": { "type": "Point", "coordinates": [ 37.599603, 55.768055 ] } },
{ "type": "Feature", "properties": { "sid": 42, "code": 46, "name": "ул. Тверская, д.20, стр.1", "slots": 12, "subway_distance": 134, "district": 155, "departures": 2215, "arrivals": 2075, "in_out": 107.000000, "roundtrips": 18, "average": 15, "average_per_slot": 1.100000, "unique_rides": 56, "start": "2015-05-01 15:47:08", "start_month": 5, "lat": 55.766494, "lon": 37.602422 }, "geometry": { "type": "Point", "coordinates": [ 37.602422, 55.766494 ] } },
{ "type": "Feature", "properties": { "sid": 43, "code": 47, "name": "ул. Малая Дмитровка, д.15", "slots": 12, "subway_distance": 412, "district": 155, "departures": 1306, "arrivals": 1214, "in_out": 108.000000, "roundtrips": 18, "average": 12, "average_per_slot": 1.100000, "unique_rides": 44, "start": "2015-06-10 18:22:24", "start_month": 6, "lat": 55.769588, "lon": 37.605453 }, "geometry": { "type": "Point", "coordinates": [ 37.605453, 55.769588 ] } },
{ "type": "Feature", "properties": { "sid": 44, "code": 49, "name": "ул. Мясницкая, д.39, стр.1", "slots": 10, "subway_distance": 300, "district": 141, "departures": 452, "arrivals": 331, "in_out": 137.000000, "roundtrips": 17, "average": 7, "average_per_slot": 1.400000, "unique_rides": 53, "start": "2015-05-01 16:32:27", "start_month": 5, "lat": 55.767169, "lon": 37.641539 }, "geometry": { "type": "Point", "coordinates": [ 37.641539, 55.767169 ] } },
{ "type": "Feature", "properties": { "sid": 45, "code": 50, "name": "ул. Новый Арбат, д.1", "slots": 12, "subway_distance": 124, "district": 138, "departures": 2844, "arrivals": 3031, "in_out": 94.000000, "roundtrips": 20, "average": 20, "average_per_slot": 0.900000, "unique_rides": 58, "start": "2015-05-02 23:52:16", "start_month": 5, "lat": 55.752609, "lon": 37.599867 }, "geometry": { "type": "Point", "coordinates": [ 37.599867, 55.752609 ] } },
{ "type": "Feature", "properties": { "sid": 46, "code": 51, "name": "ул. Новый Арбат, д.11", "slots": 12, "subway_distance": 331, "district": 138, "departures": 3126, "arrivals": 3248, "in_out": 96.000000, "roundtrips": 21, "average": 20, "average_per_slot": 1.000000, "unique_rides": 53, "start": "2015-05-01 14:38:59", "start_month": 5, "lat": 55.752590, "lon": 37.596453 }, "geometry": { "type": "Point", "coordinates": [ 37.596453, 55.75259 ] } },
{ "type": "Feature", "properties": { "sid": 47, "code": 52, "name": "ул. Новый Арбат, д.19", "slots": 12, "subway_distance": 586, "district": 138, "departures": 3140, "arrivals": 3217, "in_out": 98.000000, "roundtrips": 19, "average": 21, "average_per_slot": 1.000000, "unique_rides": 51, "start": "2015-05-01 01:06:35", "start_month": 5, "lat": 55.752291, "lon": 37.589395 }, "geometry": { "type": "Point", "coordinates": [ 37.589395, 55.752291 ] } },
{ "type": "Feature", "properties": { "sid": 48, "code": 53, "name": "ул. Новый Арбат, д.21", "slots": 12, "subway_distance": 393, "district": 138, "departures": 3866, "arrivals": 4041, "in_out": 96.000000, "roundtrips": 17, "average": 25, "average_per_slot": 1.000000, "unique_rides": 47, "start": "2015-05-01 00:04:43", "start_month": 5, "lat": 55.752153, "lon": 37.584725 }, "geometry": { "type": "Point", "coordinates": [ 37.584725, 55.752153 ] } },
{ "type": "Feature", "properties": { "sid": 49, "code": 54, "name": "пер. Сивцев Вражек, д.26, стр.1", "slots": 12, "subway_distance": 514, "district": 138, "departures": 2584, "arrivals": 2542, "in_out": 102.000000, "roundtrips": 20, "average": 17, "average_per_slot": 1.000000, "unique_rides": 31, "start": "2015-05-01 00:22:03", "start_month": 5, "lat": 55.747508, "lon": 37.591947 }, "geometry": { "type": "Point", "coordinates": [ 37.591947, 55.747508 ] } },
{ "type": "Feature", "properties": { "sid": 50, "code": 55, "name": "ул. Пречистенка, д.34", "slots": 12, "subway_distance": 550, "district": 131, "departures": 1530, "arrivals": 1502, "in_out": 102.000000, "roundtrips": 15, "average": 16, "average_per_slot": 1.000000, "unique_rides": 41, "start": "2015-06-25 18:44:48", "start_month": 6, "lat": 55.740126, "lon": 37.589738 }, "geometry": { "type": "Point", "coordinates": [ 37.589738, 55.740126 ] } },
{ "type": "Feature", "properties": { "sid": 51, "code": 56, "name": "Берсеньевская наб., д.20\/2 (Театр эстрады)", "slots": 12, "subway_distance": 347, "district": 143, "departures": 2219, "arrivals": 2388, "in_out": 93.000000, "roundtrips": 24, "average": 15, "average_per_slot": 0.900000, "unique_rides": 53, "start": "2015-05-01 15:35:13", "start_month": 5, "lat": 55.745244, "lon": 37.610828 }, "geometry": { "type": "Point", "coordinates": [ 37.610828, 55.745244 ] } },
{ "type": "Feature", "properties": { "sid": 52, "code": 57, "name": "Болотная пл. (напротив к\/т Ударник)", "slots": 12, "subway_distance": 659, "district": 143, "departures": 3104, "arrivals": 3337, "in_out": 93.000000, "roundtrips": 26, "average": 20, "average_per_slot": 0.900000, "unique_rides": 67, "start": "2015-05-01 15:49:40", "start_month": 5, "lat": 55.744008, "lon": 37.615425 }, "geometry": { "type": "Point", "coordinates": [ 37.615425, 55.744008 ] } },
{ "type": "Feature", "properties": { "sid": 53, "code": 58, "name": "Серебряническая наб., д.29", "slots": 12, "subway_distance": 622, "district": 146, "departures": 1248, "arrivals": 1229, "in_out": 102.000000, "roundtrips": 19, "average": 8, "average_per_slot": 1.000000, "unique_rides": 31, "start": "2015-05-01 23:56:28", "start_month": 5, "lat": 55.750628, "lon": 37.654944 }, "geometry": { "type": "Point", "coordinates": [ 37.654944, 55.750628 ] } },
{ "type": "Feature", "properties": { "sid": 54, "code": 59, "name": "Котельническая наб., д.33, стр. 1", "slots": 12, "subway_distance": 462, "district": 146, "departures": 2445, "arrivals": 2519, "in_out": 97.000000, "roundtrips": 30, "average": 16, "average_per_slot": 1.000000, "unique_rides": 64, "start": "2015-05-01 00:27:07", "start_month": 5, "lat": 55.740822, "lon": 37.646175 }, "geometry": { "type": "Point", "coordinates": [ 37.646175, 55.740822 ] } },
{ "type": "Feature", "properties": { "sid": 55, "code": 60, "name": "Газетный пер., д.6", "slots": 12, "subway_distance": 364, "district": 155, "departures": 1463, "arrivals": 1494, "in_out": 98.000000, "roundtrips": 11, "average": 15, "average_per_slot": 1.000000, "unique_rides": 51, "start": "2015-06-25 16:20:40", "start_month": 6, "lat": 55.757438, "lon": 37.608656 }, "geometry": { "type": "Point", "coordinates": [ 37.608656, 55.757438 ] } },
{ "type": "Feature", "properties": { "sid": 56, "code": 70, "name": "Лаврушинский пер. (напротив д.4, стр.1)", "slots": 12, "subway_distance": 419, "district": 143, "departures": 3002, "arrivals": 3152, "in_out": 95.000000, "roundtrips": 26, "average": 20, "average_per_slot": 1.000000, "unique_rides": 59, "start": "2015-05-01 18:00:02", "start_month": 5, "lat": 55.742928, "lon": 37.620228 }, "geometry": { "type": "Point", "coordinates": [ 37.620228, 55.742928 ] } },
{ "type": "Feature", "properties": { "sid": 57, "code": 71, "name": "ул. Большая Якиманка (напротив д.18)", "slots": 12, "subway_distance": 289, "district": 143, "departures": 2928, "arrivals": 3080, "in_out": 95.000000, "roundtrips": 16, "average": 24, "average_per_slot": 1.000000, "unique_rides": 58, "start": "2015-06-02 20:50:31", "start_month": 6, "lat": 55.738950, "lon": 37.616029 }, "geometry": { "type": "Point", "coordinates": [ 37.616029, 55.73895 ] } },
{ "type": "Feature", "properties": { "sid": 58, "code": 72, "name": "ул. Большая Якиманка, д.16 (ст.м.Октябрьская)", "slots": 20, "subway_distance": 50, "district": 143, "departures": 4629, "arrivals": 4802, "in_out": 96.000000, "roundtrips": 19, "average": 30, "average_per_slot": 1.000000, "unique_rides": 61, "start": "2015-05-01 11:27:00", "start_month": 5, "lat": 55.730772, "lon": 37.612528 }, "geometry": { "type": "Point", "coordinates": [ 37.612528, 55.730772 ] } },
{ "type": "Feature", "properties": { "sid": 59, "code": 73, "name": "ул. Большая Полянка, д.33\/41, стр.1", "slots": 12, "subway_distance": 83, "district": 143, "departures": 3148, "arrivals": 3180, "in_out": 99.000000, "roundtrips": 23, "average": 25, "average_per_slot": 1.000000, "unique_rides": 40, "start": "2015-05-28 20:21:36", "start_month": 5, "lat": 55.736230, "lon": 37.619470 }, "geometry": { "type": "Point", "coordinates": [ 37.61947, 55.73623 ] } },
{ "type": "Feature", "properties": { "sid": 60, "code": 74, "name": "ул. Большая Полянка, д.50\/1, стр.1", "slots": 12, "subway_distance": 387, "district": 143, "departures": 2081, "arrivals": 2130, "in_out": 98.000000, "roundtrips": 26, "average": 14, "average_per_slot": 1.000000, "unique_rides": 47, "start": "2015-05-01 00:56:00", "start_month": 5, "lat": 55.732181, "lon": 37.620381 }, "geometry": { "type": "Point", "coordinates": [ 37.620381, 55.732181 ] } },
{ "type": "Feature", "properties": { "sid": 61, "code": 75, "name": "Климентовский пер., д.23, стр.1 (ст.м.Третьяковская)", "slots": 12, "subway_distance": 7, "district": 137, "departures": 8616, "arrivals": 8753, "in_out": 98.000000, "roundtrips": 22, "average": 56, "average_per_slot": 1.000000, "unique_rides": 46, "start": "2015-05-01 00:27:59", "start_month": 5, "lat": 55.740815, "lon": 37.625638 }, "geometry": { "type": "Point", "coordinates": [ 37.625638, 55.740815 ] } },
{ "type": "Feature", "properties": { "sid": 63, "code": 77, "name": "ул. Пятницкая, д.42", "slots": 10, "subway_distance": 366, "district": 137, "departures": 2188, "arrivals": 2310, "in_out": 95.000000, "roundtrips": 23, "average": 14, "average_per_slot": 0.900000, "unique_rides": 54, "start": "2015-05-01 00:00:35", "start_month": 5, "lat": 55.737812, "lon": 37.628275 }, "geometry": { "type": "Point", "coordinates": [ 37.628275, 55.737812 ] } },
{ "type": "Feature", "properties": { "sid": 64, "code": 78, "name": "ул. Пятницкая, д.48, стр.1", "slots": 12, "subway_distance": 584, "district": 137, "departures": 3192, "arrivals": 3214, "in_out": 99.000000, "roundtrips": 24, "average": 28, "average_per_slot": 1.000000, "unique_rides": 38, "start": "2015-06-10 14:43:18", "start_month": 6, "lat": 55.735363, "lon": 37.627651 }, "geometry": { "type": "Point", "coordinates": [ 37.627651, 55.735363 ] } },
{ "type": "Feature", "properties": { "sid": 65, "code": 80, "name": "ул. Пятницкая, д.2\/38", "slots": 12, "subway_distance": 404, "district": 137, "departures": 2653, "arrivals": 2699, "in_out": 98.000000, "roundtrips": 13, "average": 27, "average_per_slot": 1.000000, "unique_rides": 52, "start": "2015-06-24 20:12:13", "start_month": 6, "lat": 55.745814, "lon": 37.626464 }, "geometry": { "type": "Point", "coordinates": [ 37.626464, 55.745814 ] } },
{ "type": "Feature", "properties": { "sid": 66, "code": 81, "name": "ул. Большая Татарская, д.19\/13", "slots": 12, "subway_distance": 377, "district": 137, "departures": 1076, "arrivals": 1136, "in_out": 95.000000, "roundtrips": 22, "average": 11, "average_per_slot": 0.900000, "unique_rides": 38, "start": "2015-06-25 07:37:20", "start_month": 6, "lat": 55.739877, "lon": 37.633294 }, "geometry": { "type": "Point", "coordinates": [ 37.633294, 55.739877 ] } },
{ "type": "Feature", "properties": { "sid": 67, "code": 84, "name": "ул. Большая Татарская, д.35", "slots": 12, "subway_distance": 649, "district": 137, "departures": 1359, "arrivals": 1371, "in_out": 99.000000, "roundtrips": 11, "average": 14, "average_per_slot": 1.000000, "unique_rides": 26, "start": "2015-06-25 03:29:13", "start_month": 6, "lat": 55.737552, "lon": 37.635113 }, "geometry": { "type": "Point", "coordinates": [ 37.635113, 55.737552 ] } },
{ "type": "Feature", "properties": { "sid": 68, "code": 85, "name": "Котельническая наб., д.1", "slots": 12, "subway_distance": 837, "district": 146, "departures": 1028, "arrivals": 1117, "in_out": 92.000000, "roundtrips": 17, "average": 13, "average_per_slot": 0.900000, "unique_rides": 55, "start": "2015-07-10 19:57:48", "start_month": 7, "lat": 55.748229, "lon": 37.645381 }, "geometry": { "type": "Point", "coordinates": [ 37.645381, 55.748229 ] } },
{ "type": "Feature", "properties": { "sid": 69, "code": 100, "name": "Зубовский б-р, д.5, стр.3 (ст.м.Парк Культуры)", "slots": 40, "subway_distance": 7, "district": 131, "departures": 15040, "arrivals": 15023, "in_out": 100.000000, "roundtrips": 25, "average": 98, "average_per_slot": 1.000000, "unique_rides": 46, "start": "2015-05-01 01:27:30", "start_month": 5, "lat": 55.735194, "lon": 37.593281 }, "geometry": { "type": "Point", "coordinates": [ 37.593281, 55.735194 ] } },
{ "type": "Feature", "properties": { "sid": 70, "code": 102, "name": "Зубовская пл., д.3, стр.1", "slots": 12, "subway_distance": 588, "district": 131, "departures": 2458, "arrivals": 2529, "in_out": 97.000000, "roundtrips": 21, "average": 16, "average_per_slot": 1.000000, "unique_rides": 52, "start": "2015-05-01 00:48:01", "start_month": 5, "lat": 55.738107, "lon": 37.585594 }, "geometry": { "type": "Point", "coordinates": [ 37.585594, 55.738107 ] } },
{ "type": "Feature", "properties": { "sid": 71, "code": 103, "name": "Смоленский б-р, д.3\/5", "slots": 12, "subway_distance": 806, "district": 131, "departures": 1249, "arrivals": 1167, "in_out": 107.000000, "roundtrips": 10, "average": 15, "average_per_slot": 1.100000, "unique_rides": 52, "start": "2015-07-09 19:53:38", "start_month": 7, "lat": 55.740490, "lon": 37.584668 }, "geometry": { "type": "Point", "coordinates": [ 37.584668, 55.74049 ] } },
{ "type": "Feature", "properties": { "sid": 72, "code": 104, "name": "Смоленский б-р, д.22\/14", "slots": 12, "subway_distance": 648, "district": 131, "departures": 3597, "arrivals": 3421, "in_out": 105.000000, "roundtrips": 22, "average": 24, "average_per_slot": 1.100000, "unique_rides": 38, "start": "2015-05-01 15:01:03", "start_month": 5, "lat": 55.742153, "lon": 37.585123 }, "geometry": { "type": "Point", "coordinates": [ 37.585123, 55.742153 ] } },
{ "type": "Feature", "properties": { "sid": 73, "code": 106, "name": "Смоленская пл., д.6", "slots": 24, "subway_distance": 59, "district": 138, "departures": 6002, "arrivals": 6097, "in_out": 98.000000, "roundtrips": 19, "average": 39, "average_per_slot": 1.000000, "unique_rides": 44, "start": "2015-05-01 14:26:48", "start_month": 5, "lat": 55.749130, "lon": 37.583095 }, "geometry": { "type": "Point", "coordinates": [ 37.583095, 55.74913 ] } },
{ "type": "Feature", "properties": { "sid": 74, "code": 108, "name": "Новинский б-р, д.27, стр.2", "slots": 12, "subway_distance": 468, "district": 147, "departures": 1682, "arrivals": 1550, "in_out": 109.000000, "roundtrips": 18, "average": 15, "average_per_slot": 1.100000, "unique_rides": 48, "start": "2015-06-10 17:13:47", "start_month": 6, "lat": 55.756668, "lon": 37.583633 }, "geometry": { "type": "Point", "coordinates": [ 37.583633, 55.756668 ] } },
{ "type": "Feature", "properties": { "sid": 75, "code": 110, "name": "Новинский б-р (напротив д.28\/35, стр.1А)", "slots": 12, "subway_distance": 436, "district": 138, "departures": 2105, "arrivals": 1956, "in_out": 108.000000, "roundtrips": 19, "average": 15, "average_per_slot": 1.100000, "unique_rides": 51, "start": "2015-05-01 00:11:08", "start_month": 5, "lat": 55.757231, "lon": 37.584637 }, "geometry": { "type": "Point", "coordinates": [ 37.584637, 55.757231 ] } },
{ "type": "Feature", "properties": { "sid": 76, "code": 112, "name": " ул. Садовая-Кудринская, д.11, стр.1", "slots": 12, "subway_distance": 484, "district": 147, "departures": 1367, "arrivals": 1271, "in_out": 108.000000, "roundtrips": 17, "average": 11, "average_per_slot": 1.100000, "unique_rides": 52, "start": "2015-05-29 11:49:52", "start_month": 5, "lat": 55.763280, "lon": 37.587380 }, "geometry": { "type": "Point", "coordinates": [ 37.58738, 55.76328 ] } },
{ "type": "Feature", "properties": { "sid": 77, "code": 114, "name": "ул. Большая Садовая, д.1", "slots": 12, "subway_distance": 494, "district": 147, "departures": 1350, "arrivals": 1091, "in_out": 124.000000, "roundtrips": 10, "average": 14, "average_per_slot": 1.200000, "unique_rides": 51, "start": "2015-06-24 17:03:22", "start_month": 6, "lat": 55.766245, "lon": 37.590813 }, "geometry": { "type": "Point", "coordinates": [ 37.590813, 55.766245 ] } },
{ "type": "Feature", "properties": { "sid": 78, "code": 116, "name": "ул. Большая Садовая, д.14, стр.1", "slots": 12, "subway_distance": 223, "district": 147, "departures": 2688, "arrivals": 2500, "in_out": 108.000000, "roundtrips": 20, "average": 18, "average_per_slot": 1.100000, "unique_rides": 55, "start": "2015-05-01 00:47:53", "start_month": 5, "lat": 55.767816, "lon": 37.594132 }, "geometry": { "type": "Point", "coordinates": [ 37.594132, 55.767816 ] } },
{ "type": "Feature", "properties": { "sid": 79, "code": 118, "name": "ул. Садовая-Триумфальная, д.4\/10", "slots": 12, "subway_distance": 160, "district": 155, "departures": 2376, "arrivals": 2117, "in_out": 112.000000, "roundtrips": 18, "average": 16, "average_per_slot": 1.100000, "unique_rides": 54, "start": "2015-05-01 16:55:03", "start_month": 5, "lat": 55.770646, "lon": 37.599103 }, "geometry": { "type": "Point", "coordinates": [ 37.599103, 55.770646 ] } },
{ "type": "Feature", "properties": { "sid": 80, "code": 120, "name": "ул. Садовая-Самотечная, д.8", "slots": 12, "subway_distance": 439, "district": 155, "departures": 2797, "arrivals": 2833, "in_out": 99.000000, "roundtrips": 22, "average": 18, "average_per_slot": 1.000000, "unique_rides": 39, "start": "2015-05-01 01:06:43", "start_month": 5, "lat": 55.773194, "lon": 37.614186 }, "geometry": { "type": "Point", "coordinates": [ 37.614186, 55.773194 ] } },
{ "type": "Feature", "properties": { "sid": 81, "code": 122, "name": "Цветной б-р., д.34, стр.1", "slots": 12, "subway_distance": 163, "district": 24, "departures": 3933, "arrivals": 4107, "in_out": 96.000000, "roundtrips": 21, "average": 31, "average_per_slot": 1.000000, "unique_rides": 50, "start": "2015-05-27 18:34:11", "start_month": 5, "lat": 55.773140, "lon": 37.621210 }, "geometry": { "type": "Point", "coordinates": [ 37.62121, 55.77314 ] } },
{ "type": "Feature", "properties": { "sid": 82, "code": 124, "name": "ул. Садовая-Сухаревская, д.5", "slots": 12, "subway_distance": 268, "district": 24, "departures": 1684, "arrivals": 1812, "in_out": 93.000000, "roundtrips": 22, "average": 15, "average_per_slot": 0.900000, "unique_rides": 48, "start": "2015-06-10 22:12:17", "start_month": 6, "lat": 55.774063, "lon": 37.621562 }, "geometry": { "type": "Point", "coordinates": [ 37.621562, 55.774063 ] } },
{ "type": "Feature", "properties": { "sid": 83, "code": 125, "name": "пр-т Мира, д.2", "slots": 12, "subway_distance": 24, "district": 24, "departures": 785, "arrivals": 709, "in_out": 111.000000, "roundtrips": 14, "average": 10, "average_per_slot": 1.100000, "unique_rides": 60, "start": "2015-07-11 06:13:18", "start_month": 7, "lat": 55.772930, "lon": 37.633300 }, "geometry": { "type": "Point", "coordinates": [ 37.6333, 55.77293 ] } },
{ "type": "Feature", "properties": { "sid": 84, "code": 126, "name": "Большая Сухаревская пл., д.2 (ст.м.Сухаревская)", "slots": 10, "subway_distance": 23, "district": 141, "departures": 4371, "arrivals": 4223, "in_out": 104.000000, "roundtrips": 20, "average": 29, "average_per_slot": 1.000000, "unique_rides": 42, "start": "2015-05-01 03:41:45", "start_month": 5, "lat": 55.772192, "lon": 37.632814 }, "geometry": { "type": "Point", "coordinates": [ 37.632814, 55.772192 ] } },
{ "type": "Feature", "properties": { "sid": 85, "code": 128, "name": "ул. Садовая-Спасская (напротив д.26)", "slots": 12, "subway_distance": 366, "district": 141, "departures": 1978, "arrivals": 1819, "in_out": 109.000000, "roundtrips": 18, "average": 13, "average_per_slot": 1.100000, "unique_rides": 43, "start": "2015-05-01 10:54:57", "start_month": 5, "lat": 55.770203, "lon": 37.643192 }, "geometry": { "type": "Point", "coordinates": [ 37.643192, 55.770203 ] } },
{ "type": "Feature", "properties": { "sid": 86, "code": 129, "name": "Орликов пер., д.1\/11 (со стороны пр. Академика Сахарова)", "slots": 12, "subway_distance": 347, "district": 141, "departures": 358, "arrivals": 319, "in_out": 112.000000, "roundtrips": 7, "average": 5, "average_per_slot": 1.100000, "unique_rides": 49, "start": "2015-07-24 10:58:54", "start_month": 7, "lat": 55.770996, "lon": 37.645046 }, "geometry": { "type": "Point", "coordinates": [ 37.645046, 55.770996 ] } },
{ "type": "Feature", "properties": { "sid": 87, "code": 130, "name": "ул. Садовая-Черногрязская, д.2", "slots": 12, "subway_distance": 72, "district": 266, "departures": 2406, "arrivals": 1994, "in_out": 121.000000, "roundtrips": 16, "average": 18, "average_per_slot": 1.200000, "unique_rides": 38, "start": "2015-05-22 13:53:20", "start_month": 5, "lat": 55.768482, "lon": 37.649155 }, "geometry": { "type": "Point", "coordinates": [ 37.649155, 55.768482 ] } },
{ "type": "Feature", "properties": { "sid": 88, "code": 132, "name": "ул. Садовая-Черногрязская, д.10\/25", "slots": 12, "subway_distance": 298, "district": 266, "departures": 896, "arrivals": 640, "in_out": 140.000000, "roundtrips": 16, "average": 6, "average_per_slot": 1.400000, "unique_rides": 56, "start": "2015-05-01 02:25:31", "start_month": 5, "lat": 55.767033, "lon": 37.652142 }, "geometry": { "type": "Point", "coordinates": [ 37.652142, 55.767033 ] } },
{ "type": "Feature", "properties": { "sid": 89, "code": 134, "name": "ул. Садовая-Черногрязская, д.16\/18, стр.1", "slots": 12, "subway_distance": 583, "district": 266, "departures": 2098, "arrivals": 1960, "in_out": 107.000000, "roundtrips": 20, "average": 14, "average_per_slot": 1.100000, "unique_rides": 40, "start": "2015-05-02 15:19:31", "start_month": 5, "lat": 55.765056, "lon": 37.655228 }, "geometry": { "type": "Point", "coordinates": [ 37.655228, 55.765056 ] } },
{ "type": "Feature", "properties": { "sid": 90, "code": 136, "name": "ул. Земляной Вал, д.2", "slots": 12, "subway_distance": 555, "district": 266, "departures": 2285, "arrivals": 2206, "in_out": 104.000000, "roundtrips": 17, "average": 15, "average_per_slot": 1.000000, "unique_rides": 51, "start": "2015-05-01 14:38:39", "start_month": 5, "lat": 55.763370, "lon": 37.656236 }, "geometry": { "type": "Point", "coordinates": [ 37.656236, 55.76337 ] } },
{ "type": "Feature", "properties": { "sid": 91, "code": 138, "name": "ул. Земляной Вал, д.14\/16, стр.1", "slots": 12, "subway_distance": 265, "district": 266, "departures": 1530, "arrivals": 1308, "in_out": 117.000000, "roundtrips": 19, "average": 10, "average_per_slot": 1.200000, "unique_rides": 59, "start": "2015-05-02 15:01:30", "start_month": 5, "lat": 55.760738, "lon": 37.656947 }, "geometry": { "type": "Point", "coordinates": [ 37.656947, 55.760738 ] } },
{ "type": "Feature", "properties": { "sid": 92, "code": 140, "name": "ул. Земляной Вал, д.24\/30, стр.1", "slots": 12, "subway_distance": 122, "district": 266, "departures": 5942, "arrivals": 5732, "in_out": 104.000000, "roundtrips": 18, "average": 39, "average_per_slot": 1.000000, "unique_rides": 41, "start": "2015-05-01 00:54:47", "start_month": 5, "lat": 55.759300, "lon": 37.657331 }, "geometry": { "type": "Point", "coordinates": [ 37.657331, 55.7593 ] } },
{ "type": "Feature", "properties": { "sid": 93, "code": 142, "name": "ул. Земляной Вал, д.48Б", "slots": 12, "subway_distance": 440, "district": 146, "departures": 1523, "arrivals": 1481, "in_out": 103.000000, "roundtrips": 17, "average": 10, "average_per_slot": 1.000000, "unique_rides": 51, "start": "2015-05-01 23:58:42", "start_month": 5, "lat": 55.752247, "lon": 37.655567 }, "geometry": { "type": "Point", "coordinates": [ 37.655567, 55.752247 ] } },
{ "type": "Feature", "properties": { "sid": 94, "code": 144, "name": "ул. Земляной Вал, д.52\/16, стр.2", "slots": 12, "subway_distance": 749, "district": 146, "departures": 1431, "arrivals": 1475, "in_out": 97.000000, "roundtrips": 26, "average": 10, "average_per_slot": 1.000000, "unique_rides": 56, "start": "2015-05-01 17:27:28", "start_month": 5, "lat": 55.749356, "lon": 37.655467 }, "geometry": { "type": "Point", "coordinates": [ 37.655467, 55.749356 ] } },
{ "type": "Feature", "properties": { "sid": 95, "code": 146, "name": "Гончарная наб., д.3, стр.3", "slots": 12, "subway_distance": 374, "district": 146, "departures": 2681, "arrivals": 2834, "in_out": 95.000000, "roundtrips": 34, "average": 22, "average_per_slot": 0.900000, "unique_rides": 62, "start": "2015-06-01 20:26:20", "start_month": 6, "lat": 55.737643, "lon": 37.647831 }, "geometry": { "type": "Point", "coordinates": [ 37.647831, 55.737643 ] } },
{ "type": "Feature", "properties": { "sid": 96, "code": 148, "name": "ул. Бахрушина, д.31\/12, стр.3", "slots": 12, "subway_distance": 177, "district": 137, "departures": 4246, "arrivals": 4281, "in_out": 99.000000, "roundtrips": 23, "average": 28, "average_per_slot": 1.000000, "unique_rides": 46, "start": "2015-05-01 00:17:12", "start_month": 5, "lat": 55.731861, "lon": 37.638850 }, "geometry": { "type": "Point", "coordinates": [ 37.63885, 55.731861 ] } },
{ "type": "Feature", "properties": { "sid": 97, "code": 150, "name": "ул. Валовая, д.20", "slots": 12, "subway_distance": 406, "district": 137, "departures": 4301, "arrivals": 4406, "in_out": 98.000000, "roundtrips": 23, "average": 28, "average_per_slot": 1.000000, "unique_rides": 42, "start": "2015-05-01 00:12:00", "start_month": 5, "lat": 55.729697, "lon": 37.629661 }, "geometry": { "type": "Point", "coordinates": [ 37.629661, 55.729697 ] } },
{ "type": "Feature", "properties": { "sid": 98, "code": 151, "name": "ул. Люсиновская, д.2", "slots": 12, "subway_distance": 20, "district": 137, "departures": 2043, "arrivals": 2174, "in_out": 94.000000, "roundtrips": 32, "average": 21, "average_per_slot": 0.900000, "unique_rides": 48, "start": "2015-06-25 14:45:56", "start_month": 6, "lat": 55.729074, "lon": 37.623162 }, "geometry": { "type": "Point", "coordinates": [ 37.623162, 55.729074 ] } },
{ "type": "Feature", "properties": { "sid": 99, "code": 152, "name": "ул. Крымский Вал, д.4 (ст.м.Октябрьская)", "slots": 8, "subway_distance": 142, "district": 143, "departures": 3436, "arrivals": 3619, "in_out": 95.000000, "roundtrips": 23, "average": 23, "average_per_slot": 0.900000, "unique_rides": 70, "start": "2015-05-01 10:51:10", "start_month": 5, "lat": 55.730486, "lon": 37.610825 }, "geometry": { "type": "Point", "coordinates": [ 37.610825, 55.730486 ] } },
{ "type": "Feature", "properties": { "sid": 100, "code": 154, "name": "ул. Крымский Вал, д.3, стр.16", "slots": 20, "subway_distance": 88, "district": 143, "departures": 8892, "arrivals": 9166, "in_out": 97.000000, "roundtrips": 35, "average": 59, "average_per_slot": 1.000000, "unique_rides": 65, "start": "2015-05-01 00:04:51", "start_month": 5, "lat": 55.729919, "lon": 37.610658 }, "geometry": { "type": "Point", "coordinates": [ 37.610658, 55.729919 ] } },
{ "type": "Feature", "properties": { "sid": 101, "code": 156, "name": "ул. Крымский Вал, д.8, корп.2", "slots": 20, "subway_distance": 402, "district": 143, "departures": 6176, "arrivals": 6663, "in_out": 93.000000, "roundtrips": 41, "average": 55, "average_per_slot": 0.900000, "unique_rides": 64, "start": "2015-06-10 19:52:04", "start_month": 6, "lat": 55.731918, "lon": 37.606376 }, "geometry": { "type": "Point", "coordinates": [ 37.606376, 55.731918 ] } },
{ "type": "Feature", "properties": { "sid": 102, "code": 157, "name": "напротив входа в Парк Горького", "slots": 32, "subway_distance": 468, "district": 143, "departures": 2515, "arrivals": 3308, "in_out": 76.000000, "roundtrips": 35, "average": 43, "average_per_slot": 0.800000, "unique_rides": 69, "start": "2015-08-03 12:22:27", "start_month": 8, "lat": 55.731775, "lon": 37.605268 }, "geometry": { "type": "Point", "coordinates": [ 37.605268, 55.731775 ] } },
{ "type": "Feature", "properties": { "sid": 103, "code": 200, "name": "Фрунзенская наб. (напротив д.4)", "slots": 12, "subway_distance": 286, "district": 131, "departures": 8414, "arrivals": 8906, "in_out": 94.000000, "roundtrips": 25, "average": 55, "average_per_slot": 0.900000, "unique_rides": 60, "start": "2015-05-01 00:52:40", "start_month": 5, "lat": 55.733558, "lon": 37.596925 }, "geometry": { "type": "Point", "coordinates": [ 37.596925, 55.733558 ] } },
{ "type": "Feature", "properties": { "sid": 104, "code": 201, "name": "Фрунзенская наб. (пересеч. с 1-ой Фрунзенской ул.)", "slots": 22, "subway_distance": 605, "district": 131, "departures": 6200, "arrivals": 6949, "in_out": 89.000000, "roundtrips": 28, "average": 41, "average_per_slot": 0.900000, "unique_rides": 59, "start": "2015-05-01 01:24:24", "start_month": 5, "lat": 55.725747, "lon": 37.589864 }, "geometry": { "type": "Point", "coordinates": [ 37.589864, 55.725747 ] } },
{ "type": "Feature", "properties": { "sid": 146, "code": 244, "name": "ул. Плющиха, д.39", "slots": 12, "subway_distance": 691, "district": 131, "departures": 2567, "arrivals": 2479, "in_out": 104.000000, "roundtrips": 21, "average": 17, "average_per_slot": 1.000000, "unique_rides": 25, "start": "2015-05-01 00:37:17", "start_month": 5, "lat": 55.740264, "lon": 37.576753 }, "geometry": { "type": "Point", "coordinates": [ 37.576753, 55.740264 ] } },
{ "type": "Feature", "properties": { "sid": 105, "code": 202, "name": "Комсомольский пр-т (пересеч. с 1-ой Фрунзенской ул.)", "slots": 12, "subway_distance": 243, "district": 131, "departures": 2588, "arrivals": 2732, "in_out": 95.000000, "roundtrips": 27, "average": 17, "average_per_slot": 0.900000, "unique_rides": 50, "start": "2015-05-01 03:57:05", "start_month": 5, "lat": 55.728007, "lon": 37.584417 }, "geometry": { "type": "Point", "coordinates": [ 37.584417, 55.728007 ] } },
{ "type": "Feature", "properties": { "sid": 106, "code": 203, "name": "Комсомольский пр-т (пересеч. со 2-ой Фрунзенской ул.)", "slots": 9, "subway_distance": 367, "district": 131, "departures": 1876, "arrivals": 2017, "in_out": 93.000000, "roundtrips": 30, "average": 13, "average_per_slot": 0.900000, "unique_rides": 45, "start": "2015-05-01 14:27:16", "start_month": 5, "lat": 55.724242, "lon": 37.579058 }, "geometry": { "type": "Point", "coordinates": [ 37.579058, 55.724242 ] } },
{ "type": "Feature", "properties": { "sid": 107, "code": 204, "name": "Фрунзенская наб. (пересеч. со 2-й Фрунзенской ул.)", "slots": 8, "subway_distance": 724, "district": 131, "departures": 3903, "arrivals": 4326, "in_out": 90.000000, "roundtrips": 26, "average": 26, "average_per_slot": 0.900000, "unique_rides": 62, "start": "2015-05-01 11:11:48", "start_month": 5, "lat": 55.721750, "lon": 37.586400 }, "geometry": { "type": "Point", "coordinates": [ 37.5864, 55.72175 ] } },
{ "type": "Feature", "properties": { "sid": 108, "code": 205, "name": "Комсомольский пр-т (пересеч. с 3-ей Фрунзенской ул.)", "slots": 12, "subway_distance": 669, "district": 131, "departures": 3104, "arrivals": 3264, "in_out": 95.000000, "roundtrips": 29, "average": 20, "average_per_slot": 1.000000, "unique_rides": 31, "start": "2015-05-01 03:13:57", "start_month": 5, "lat": 55.721972, "lon": 37.575858 }, "geometry": { "type": "Point", "coordinates": [ 37.575858, 55.721972 ] } },
{ "type": "Feature", "properties": { "sid": 109, "code": 206, "name": "Фрунзенская наб. (пересеч. с 3-ей Фрунзенской ул.)", "slots": 10, "subway_distance": 930, "district": 131, "departures": 3901, "arrivals": 4261, "in_out": 92.000000, "roundtrips": 26, "average": 26, "average_per_slot": 0.900000, "unique_rides": 57, "start": "2015-05-01 03:37:59", "start_month": 5, "lat": 55.719197, "lon": 37.583486 }, "geometry": { "type": "Point", "coordinates": [ 37.583486, 55.719197 ] } },
{ "type": "Feature", "properties": { "sid": 110, "code": 207, "name": "Фрунзенская наб, д. 54 (пересеч. с ул. Хамовнический Вал)", "slots": 16, "subway_distance": 985, "district": 131, "departures": 4915, "arrivals": 5144, "in_out": 96.000000, "roundtrips": 25, "average": 39, "average_per_slot": 1.000000, "unique_rides": 56, "start": "2015-05-01 10:41:01", "start_month": 5, "lat": 55.715508, "lon": 37.577989 }, "geometry": { "type": "Point", "coordinates": [ 37.577989, 55.715508 ] } },
{ "type": "Feature", "properties": { "sid": 111, "code": 208, "name": "ул. 10-летия Октября (напротив д.29, корп.3, ст.м.Спортивная)", "slots": 12, "subway_distance": 27, "district": 131, "departures": 2666, "arrivals": 2741, "in_out": 97.000000, "roundtrips": 28, "average": 18, "average_per_slot": 1.000000, "unique_rides": 40, "start": "2015-05-01 12:44:41", "start_month": 5, "lat": 55.723833, "lon": 37.565242 }, "geometry": { "type": "Point", "coordinates": [ 37.565242, 55.723833 ] } },
{ "type": "Feature", "properties": { "sid": 112, "code": 209, "name": "ст.м.Спортивная (выход к Хамовническому Валу)", "slots": 24, "subway_distance": 49, "district": 131, "departures": 2660, "arrivals": 2748, "in_out": 97.000000, "roundtrips": 33, "average": 17, "average_per_slot": 1.000000, "unique_rides": 42, "start": "2015-05-01 12:17:00", "start_month": 5, "lat": 55.721839, "lon": 37.561797 }, "geometry": { "type": "Point", "coordinates": [ 37.561797, 55.721839 ] } },
{ "type": "Feature", "properties": { "sid": 113, "code": 210, "name": "Лужнецкая наб. (пересеч. с Новолужнецким пр.)", "slots": 34, "subway_distance": 563, "district": 131, "departures": 8666, "arrivals": 9350, "in_out": 93.000000, "roundtrips": 27, "average": 57, "average_per_slot": 0.900000, "unique_rides": 52, "start": "2015-05-01 15:20:34", "start_month": 5, "lat": 55.712558, "lon": 37.569522 }, "geometry": { "type": "Point", "coordinates": [ 37.569522, 55.712558 ] } },
{ "type": "Feature", "properties": { "sid": 114, "code": 211, "name": "ст.м.Воробьёвы горы (Лужники)", "slots": 48, "subway_distance": 36, "district": 131, "departures": 9222, "arrivals": 10940, "in_out": 84.000000, "roundtrips": 31, "average": 61, "average_per_slot": 0.800000, "unique_rides": 50, "start": "2015-05-01 13:07:43", "start_month": 5, "lat": 55.711594, "lon": 37.560011 }, "geometry": { "type": "Point", "coordinates": [ 37.560011, 55.711594 ] } },
{ "type": "Feature", "properties": { "sid": 115, "code": 212, "name": "Лужнецкая наб. (напротив д.24, стр.33)", "slots": 34, "subway_distance": 1061, "district": 131, "departures": 10279, "arrivals": 10971, "in_out": 94.000000, "roundtrips": 25, "average": 68, "average_per_slot": 0.900000, "unique_rides": 47, "start": "2015-05-01 15:17:31", "start_month": 5, "lat": 55.726989, "lon": 37.547253 }, "geometry": { "type": "Point", "coordinates": [ 37.547253, 55.726989 ] } },
{ "type": "Feature", "properties": { "sid": 116, "code": 213, "name": "ул. Большая Пироговская (на площади Новодевичьего Монастыря)", "slots": 12, "subway_distance": 493, "district": 131, "departures": 1649, "arrivals": 1746, "in_out": 94.000000, "roundtrips": 22, "average": 12, "average_per_slot": 0.900000, "unique_rides": 59, "start": "2015-05-01 00:34:26", "start_month": 5, "lat": 55.726908, "lon": 37.559608 }, "geometry": { "type": "Point", "coordinates": [ 37.559608, 55.726908 ] } },
{ "type": "Feature", "properties": { "sid": 117, "code": 214, "name": "ул. Большая Пироговская, д.2, стр.4", "slots": 12, "subway_distance": 827, "district": 131, "departures": 1948, "arrivals": 1924, "in_out": 101.000000, "roundtrips": 19, "average": 13, "average_per_slot": 1.000000, "unique_rides": 29, "start": "2015-05-01 11:22:05", "start_month": 5, "lat": 55.731139, "lon": 37.569297 }, "geometry": { "type": "Point", "coordinates": [ 37.569297, 55.731139 ] } },
{ "type": "Feature", "properties": { "sid": 118, "code": 215, "name": "ул. Большая Пироговская (напротив д.15\/18, стр.1)", "slots": 21, "subway_distance": 790, "district": 131, "departures": 3451, "arrivals": 3448, "in_out": 100.000000, "roundtrips": 31, "average": 23, "average_per_slot": 1.000000, "unique_rides": 33, "start": "2015-05-01 02:21:05", "start_month": 5, "lat": 55.733867, "lon": 37.575489 }, "geometry": { "type": "Point", "coordinates": [ 37.575489, 55.733867 ] } },
{ "type": "Feature", "properties": { "sid": 119, "code": 216, "name": "ул. Большая Пироговская (напротив д.6\/25)", "slots": 12, "subway_distance": 767, "district": 131, "departures": 2411, "arrivals": 2325, "in_out": 104.000000, "roundtrips": 28, "average": 16, "average_per_slot": 1.000000, "unique_rides": 33, "start": "2015-05-01 11:09:44", "start_month": 5, "lat": 55.736464, "lon": 37.581356 }, "geometry": { "type": "Point", "coordinates": [ 37.581356, 55.736464 ] } },
{ "type": "Feature", "properties": { "sid": 120, "code": 217, "name": "ул. Усачева, д.2, стр.1", "slots": 12, "subway_distance": 434, "district": 131, "departures": 1851, "arrivals": 1754, "in_out": 106.000000, "roundtrips": 23, "average": 13, "average_per_slot": 1.100000, "unique_rides": 34, "start": "2015-05-02 12:35:44", "start_month": 5, "lat": 55.730711, "lon": 37.577028 }, "geometry": { "type": "Point", "coordinates": [ 37.577028, 55.730711 ] } },
{ "type": "Feature", "properties": { "sid": 121, "code": 218, "name": "Комсомольский пр-т (напротив д.28, ст.м.Фрунзенская)", "slots": 24, "subway_distance": 103, "district": 131, "departures": 4685, "arrivals": 4906, "in_out": 95.000000, "roundtrips": 21, "average": 31, "average_per_slot": 1.000000, "unique_rides": 44, "start": "2015-05-01 03:00:19", "start_month": 5, "lat": 55.726481, "lon": 37.580778 }, "geometry": { "type": "Point", "coordinates": [ 37.580778, 55.726481 ] } },
{ "type": "Feature", "properties": { "sid": 122, "code": 219, "name": "Комсомольский пр-т (дублер, напротив д.48\/22)", "slots": 12, "subway_distance": 585, "district": 131, "departures": 1387, "arrivals": 1527, "in_out": 91.000000, "roundtrips": 31, "average": 9, "average_per_slot": 0.900000, "unique_rides": 41, "start": "2015-05-02 11:57:14", "start_month": 5, "lat": 55.719322, "lon": 37.570481 }, "geometry": { "type": "Point", "coordinates": [ 37.570481, 55.719322 ] } },
{ "type": "Feature", "properties": { "sid": 123, "code": 220, "name": "ул. Красная Пресня, д.1", "slots": 12, "subway_distance": 42, "district": 147, "departures": 5524, "arrivals": 5346, "in_out": 103.000000, "roundtrips": 23, "average": 36, "average_per_slot": 1.000000, "unique_rides": 40, "start": "2015-05-01 14:10:34", "start_month": 5, "lat": 55.760688, "lon": 37.577200 }, "geometry": { "type": "Point", "coordinates": [ 37.5772, 55.760688 ] } },
{ "type": "Feature", "properties": { "sid": 124, "code": 221, "name": "ул. Красная Пресня, д.31", "slots": 12, "subway_distance": 183, "district": 147, "departures": 4567, "arrivals": 4059, "in_out": 113.000000, "roundtrips": 20, "average": 30, "average_per_slot": 1.100000, "unique_rides": 37, "start": "2015-05-01 02:38:47", "start_month": 5, "lat": 55.762431, "lon": 37.563590 }, "geometry": { "type": "Point", "coordinates": [ 37.56359, 55.762431 ] } },
{ "type": "Feature", "properties": { "sid": 125, "code": 222, "name": "ул. Мантулинская, д.2", "slots": 12, "subway_distance": 805, "district": 147, "departures": 2716, "arrivals": 2936, "in_out": 93.000000, "roundtrips": 18, "average": 18, "average_per_slot": 0.900000, "unique_rides": 38, "start": "2015-05-01 16:21:46", "start_month": 5, "lat": 55.756869, "lon": 37.559078 }, "geometry": { "type": "Point", "coordinates": [ 37.559078, 55.756869 ] } },
{ "type": "Feature", "properties": { "sid": 126, "code": 223, "name": "ул. Мантулинская, д.5, стр.21", "slots": 12, "subway_distance": 822, "district": 147, "departures": 3749, "arrivals": 4045, "in_out": 93.000000, "roundtrips": 35, "average": 25, "average_per_slot": 0.900000, "unique_rides": 35, "start": "2015-05-01 16:21:13", "start_month": 5, "lat": 55.756097, "lon": 37.551319 }, "geometry": { "type": "Point", "coordinates": [ 37.551319, 55.756097 ] } },
{ "type": "Feature", "properties": { "sid": 127, "code": 224, "name": "Краснопресненская наб., д.14, стр.1", "slots": 12, "subway_distance": 153, "district": 147, "departures": 2865, "arrivals": 3000, "in_out": 96.000000, "roundtrips": 24, "average": 19, "average_per_slot": 1.000000, "unique_rides": 57, "start": "2015-05-01 16:17:57", "start_month": 5, "lat": 55.748805, "lon": 37.546129 }, "geometry": { "type": "Point", "coordinates": [ 37.546129, 55.748805 ] } },
{ "type": "Feature", "properties": { "sid": 128, "code": 225, "name": "Краснопресненская наб., вл.5 (усадьба Студенец)", "slots": 12, "subway_distance": 612, "district": 147, "departures": 940, "arrivals": 1065, "in_out": 88.000000, "roundtrips": 27, "average": 6, "average_per_slot": 0.900000, "unique_rides": 66, "start": "2015-05-01 17:02:37", "start_month": 5, "lat": 55.751661, "lon": 37.551733 }, "geometry": { "type": "Point", "coordinates": [ 37.551733, 55.751661 ] } },
{ "type": "Feature", "properties": { "sid": 129, "code": 226, "name": "Краснопресненская наб., д.12А", "slots": 12, "subway_distance": 1092, "district": 147, "departures": 3172, "arrivals": 3306, "in_out": 96.000000, "roundtrips": 25, "average": 21, "average_per_slot": 1.000000, "unique_rides": 58, "start": "2015-05-01 15:32:29", "start_month": 5, "lat": 55.754196, "lon": 37.559449 }, "geometry": { "type": "Point", "coordinates": [ 37.559449, 55.754196 ] } },
{ "type": "Feature", "properties": { "sid": 130, "code": 227, "name": "Краснопресненская наб., д.16, стр.1", "slots": 12, "subway_distance": 66, "district": 147, "departures": 2791, "arrivals": 2899, "in_out": 96.000000, "roundtrips": 21, "average": 18, "average_per_slot": 1.000000, "unique_rides": 48, "start": "2015-05-01 02:50:17", "start_month": 5, "lat": 55.747917, "lon": 37.543647 }, "geometry": { "type": "Point", "coordinates": [ 37.543647, 55.747917 ] } },
{ "type": "Feature", "properties": { "sid": 131, "code": 228, "name": "Шмитовский пр., д.16, стр.2", "slots": 12, "subway_distance": 751, "district": 147, "departures": 1702, "arrivals": 1830, "in_out": 93.000000, "roundtrips": 30, "average": 14, "average_per_slot": 0.900000, "unique_rides": 27, "start": "2015-06-02 19:59:02", "start_month": 6, "lat": 55.757490, "lon": 37.545641 }, "geometry": { "type": "Point", "coordinates": [ 37.545641, 55.75749 ] } },
{ "type": "Feature", "properties": { "sid": 132, "code": 229, "name": "Звенигородское ш., д.7", "slots": 12, "subway_distance": 482, "district": 147, "departures": 1508, "arrivals": 1196, "in_out": 126.000000, "roundtrips": 17, "average": 12, "average_per_slot": 1.300000, "unique_rides": 31, "start": "2015-06-02 11:20:36", "start_month": 6, "lat": 55.764236, "lon": 37.552939 }, "geometry": { "type": "Point", "coordinates": [ 37.552939, 55.764236 ] } },
{ "type": "Feature", "properties": { "sid": 133, "code": 231, "name": "пл. Тверская Застава, д.7", "slots": 12, "subway_distance": 55, "district": 155, "departures": 3151, "arrivals": 2971, "in_out": 106.000000, "roundtrips": 19, "average": 26, "average_per_slot": 1.100000, "unique_rides": 39, "start": "2015-06-04 17:38:45", "start_month": 6, "lat": 55.777100, "lon": 37.583000 }, "geometry": { "type": "Point", "coordinates": [ 37.583, 55.7771 ] } },
{ "type": "Feature", "properties": { "sid": 134, "code": 232, "name": "ул. 2-я Брестская, д.31", "slots": 12, "subway_distance": 309, "district": 147, "departures": 3635, "arrivals": 3541, "in_out": 103.000000, "roundtrips": 23, "average": 24, "average_per_slot": 1.000000, "unique_rides": 36, "start": "2015-05-01 10:02:12", "start_month": 5, "lat": 55.773158, "lon": 37.585931 }, "geometry": { "type": "Point", "coordinates": [ 37.585931, 55.773158 ] } },
{ "type": "Feature", "properties": { "sid": 135, "code": 233, "name": "ул. Гашека, д.2, стр.1", "slots": 12, "subway_distance": 559, "district": 147, "departures": 2537, "arrivals": 2204, "in_out": 115.000000, "roundtrips": 21, "average": 17, "average_per_slot": 1.200000, "unique_rides": 31, "start": "2015-05-01 13:50:54", "start_month": 5, "lat": 55.767778, "lon": 37.587989 }, "geometry": { "type": "Point", "coordinates": [ 37.587989, 55.767778 ] } },
{ "type": "Feature", "properties": { "sid": 136, "code": 234, "name": "ул. Большая Грузинская, д.39", "slots": 12, "subway_distance": 566, "district": 147, "departures": 3145, "arrivals": 3062, "in_out": 103.000000, "roundtrips": 21, "average": 21, "average_per_slot": 1.000000, "unique_rides": 34, "start": "2015-05-01 07:24:41", "start_month": 5, "lat": 55.770222, "lon": 37.582292 }, "geometry": { "type": "Point", "coordinates": [ 37.582292, 55.770222 ] } },
{ "type": "Feature", "properties": { "sid": 137, "code": 235, "name": "ул. Большая Грузинская, д.1, стр.2", "slots": 12, "subway_distance": 82, "district": 147, "departures": 2412, "arrivals": 2376, "in_out": 102.000000, "roundtrips": 23, "average": 16, "average_per_slot": 1.000000, "unique_rides": 50, "start": "2015-05-01 00:37:07", "start_month": 5, "lat": 55.761028, "lon": 37.576593 }, "geometry": { "type": "Point", "coordinates": [ 37.576593, 55.761028 ] } },
{ "type": "Feature", "properties": { "sid": 138, "code": 236, "name": "ул. Малая Грузинская, д.19\/2", "slots": 12, "subway_distance": 649, "district": 147, "departures": 2235, "arrivals": 2166, "in_out": 103.000000, "roundtrips": 21, "average": 20, "average_per_slot": 1.000000, "unique_rides": 21, "start": "2015-06-10 20:48:36", "start_month": 6, "lat": 55.765613, "lon": 37.572071 }, "geometry": { "type": "Point", "coordinates": [ 37.572071, 55.765613 ] } },
{ "type": "Feature", "properties": { "sid": 139, "code": 237, "name": "ул. Пресненский Вал, д.24", "slots": 12, "subway_distance": 537, "district": 147, "departures": 1862, "arrivals": 1752, "in_out": 106.000000, "roundtrips": 25, "average": 15, "average_per_slot": 1.100000, "unique_rides": 28, "start": "2015-05-21 22:32:56", "start_month": 5, "lat": 55.769445, "lon": 37.565552 }, "geometry": { "type": "Point", "coordinates": [ 37.565552, 55.769445 ] } },
{ "type": "Feature", "properties": { "sid": 140, "code": 238, "name": "ул. 1905 года, д.4, стр.2", "slots": 12, "subway_distance": 58, "district": 147, "departures": 3869, "arrivals": 3215, "in_out": 120.000000, "roundtrips": 17, "average": 25, "average_per_slot": 1.200000, "unique_rides": 31, "start": "2015-05-01 10:55:49", "start_month": 5, "lat": 55.763789, "lon": 37.561297 }, "geometry": { "type": "Point", "coordinates": [ 37.561297, 55.763789 ] } },
{ "type": "Feature", "properties": { "sid": 141, "code": 239, "name": "Смоленская наб., д.12", "slots": 12, "subway_distance": 572, "district": 138, "departures": 2320, "arrivals": 2569, "in_out": 90.000000, "roundtrips": 21, "average": 15, "average_per_slot": 0.900000, "unique_rides": 67, "start": "2015-05-01 16:37:07", "start_month": 5, "lat": 55.751750, "lon": 37.574630 }, "geometry": { "type": "Point", "coordinates": [ 37.57463, 55.75175 ] } },
{ "type": "Feature", "properties": { "sid": 142, "code": 240, "name": "Смоленская наб., д.2", "slots": 20, "subway_distance": 517, "district": 138, "departures": 4047, "arrivals": 4459, "in_out": 91.000000, "roundtrips": 24, "average": 26, "average_per_slot": 0.900000, "unique_rides": 55, "start": "2015-05-01 15:13:46", "start_month": 5, "lat": 55.746086, "lon": 37.575712 }, "geometry": { "type": "Point", "coordinates": [ 37.575712, 55.746086 ] } },
{ "type": "Feature", "properties": { "sid": 143, "code": 241, "name": "7-й Ростовский пер., д.11", "slots": 12, "subway_distance": 493, "district": 131, "departures": 3323, "arrivals": 3104, "in_out": 107.000000, "roundtrips": 20, "average": 22, "average_per_slot": 1.100000, "unique_rides": 49, "start": "2015-05-01 03:15:21", "start_month": 5, "lat": 55.740347, "lon": 37.572706 }, "geometry": { "type": "Point", "coordinates": [ 37.572706, 55.740347 ] } },
{ "type": "Feature", "properties": { "sid": 144, "code": 242, "name": "Саввинская наб., д.3", "slots": 12, "subway_distance": 519, "district": 131, "departures": 3025, "arrivals": 3420, "in_out": 88.000000, "roundtrips": 21, "average": 20, "average_per_slot": 0.900000, "unique_rides": 57, "start": "2015-05-01 01:17:53", "start_month": 5, "lat": 55.739349, "lon": 37.570504 }, "geometry": { "type": "Point", "coordinates": [ 37.570504, 55.739349 ] } },
{ "type": "Feature", "properties": { "sid": 145, "code": 243, "name": "Саввинская наб., д.9", "slots": 12, "subway_distance": 724, "district": 131, "departures": 3330, "arrivals": 3622, "in_out": 92.000000, "roundtrips": 23, "average": 22, "average_per_slot": 0.900000, "unique_rides": 60, "start": "2015-05-01 15:02:40", "start_month": 5, "lat": 55.736802, "lon": 37.568280 }, "geometry": { "type": "Point", "coordinates": [ 37.56828, 55.736802 ] } },
{ "type": "Feature", "properties": { "sid": 147, "code": 245, "name": "пл. Европы, д.2 (у пешеходного моста)", "slots": 18, "subway_distance": 186, "district": 59, "departures": 2005, "arrivals": 2219, "in_out": 90.000000, "roundtrips": 20, "average": 29, "average_per_slot": 0.900000, "unique_rides": 54, "start": "2015-07-23 19:33:13", "start_month": 7, "lat": 55.742321, "lon": 37.569240 }, "geometry": { "type": "Point", "coordinates": [ 37.56924, 55.742321 ] } },
{ "type": "Feature", "properties": { "sid": 148, "code": 248, "name": "ул. Б. Дорогомиловская, д.7\/2", "slots": 12, "subway_distance": 560, "district": 59, "departures": 897, "arrivals": 1071, "in_out": 84.000000, "roundtrips": 27, "average": 11, "average_per_slot": 0.800000, "unique_rides": 55, "start": "2015-07-10 14:30:48", "start_month": 7, "lat": 55.746254, "lon": 37.557608 }, "geometry": { "type": "Point", "coordinates": [ 37.557608, 55.746254 ] } },
{ "type": "Feature", "properties": { "sid": 149, "code": 250, "name": "Москва-Сити (башня Империя)", "slots": 12, "subway_distance": 192, "district": 147, "departures": 1062, "arrivals": 1004, "in_out": 106.000000, "roundtrips": 13, "average": 12, "average_per_slot": 1.100000, "unique_rides": 47, "start": "2015-07-01 11:43:27", "start_month": 7, "lat": 55.747509, "lon": 37.539165 }, "geometry": { "type": "Point", "coordinates": [ 37.539165, 55.747509 ] } },
{ "type": "Feature", "properties": { "sid": 150, "code": 251, "name": "1-й Красногвардейский пр-д, д.13, стр.1", "slots": 12, "subway_distance": 97, "district": 147, "departures": 1129, "arrivals": 1169, "in_out": 97.000000, "roundtrips": 12, "average": 13, "average_per_slot": 1.000000, "unique_rides": 40, "start": "2015-07-09 20:28:04", "start_month": 7, "lat": 55.751911, "lon": 37.540904 }, "geometry": { "type": "Point", "coordinates": [ 37.540904, 55.751911 ] } },
{ "type": "Feature", "properties": { "sid": 151, "code": 252, "name": "ул. Льва Толстого (напротив д.21)", "slots": 8, "subway_distance": 445, "district": 131, "departures": 1210, "arrivals": 1179, "in_out": 103.000000, "roundtrips": 13, "average": 17, "average_per_slot": 1.000000, "unique_rides": 28, "start": "2015-07-23 18:47:25", "start_month": 7, "lat": 55.734264, "lon": 37.586429 }, "geometry": { "type": "Point", "coordinates": [ 37.586429, 55.734264 ] } },
{ "type": "Feature", "properties": { "sid": 152, "code": 300, "name": "Мичуринский пр-т, д.12, корп.1", "slots": 12, "subway_distance": 1996, "district": 67, "departures": 1840, "arrivals": 2002, "in_out": 92.000000, "roundtrips": 38, "average": 14, "average_per_slot": 0.900000, "unique_rides": 36, "start": "2015-05-25 20:00:37", "start_month": 5, "lat": 55.703026, "lon": 37.507555 }, "geometry": { "type": "Point", "coordinates": [ 37.507555, 55.703026 ] } },
{ "type": "Feature", "properties": { "sid": 153, "code": 301, "name": "пр-т Вернадского, ост. Университетский пр-т", "slots": 12, "subway_distance": 1076, "district": 67, "departures": 2713, "arrivals": 2558, "in_out": 106.000000, "roundtrips": 25, "average": 18, "average_per_slot": 1.100000, "unique_rides": 58, "start": "2015-05-01 16:23:25", "start_month": 5, "lat": 55.700864, "lon": 37.545636 }, "geometry": { "type": "Point", "coordinates": [ 37.545636, 55.700864 ] } },
{ "type": "Feature", "properties": { "sid": 154, "code": 302, "name": "пр-т Вернадского, д.11\/19", "slots": 12, "subway_distance": 327, "district": 148, "departures": 2706, "arrivals": 2639, "in_out": 103.000000, "roundtrips": 22, "average": 21, "average_per_slot": 1.000000, "unique_rides": 41, "start": "2015-05-28 21:00:57", "start_month": 5, "lat": 55.689770, "lon": 37.530600 }, "geometry": { "type": "Point", "coordinates": [ 37.5306, 55.68977 ] } },
{ "type": "Feature", "properties": { "sid": 155, "code": 303, "name": "пр-т Вернадского, д.14", "slots": 12, "subway_distance": 4, "district": 159, "departures": 3179, "arrivals": 3143, "in_out": 101.000000, "roundtrips": 35, "average": 25, "average_per_slot": 1.000000, "unique_rides": 41, "start": "2015-05-28 20:36:25", "start_month": 5, "lat": 55.676540, "lon": 37.504580 }, "geometry": { "type": "Point", "coordinates": [ 37.50458, 55.67654 ] } },
{ "type": "Feature", "properties": { "sid": 156, "code": 307, "name": "ул. Вавилова, д.24", "slots": 12, "subway_distance": 777, "district": 148, "departures": 1473, "arrivals": 1255, "in_out": 117.000000, "roundtrips": 12, "average": 16, "average_per_slot": 1.200000, "unique_rides": 36, "start": "2015-06-29 16:59:11", "start_month": 6, "lat": 55.701175, "lon": 37.577945 }, "geometry": { "type": "Point", "coordinates": [ 37.577945, 55.701175 ] } },
{ "type": "Feature", "properties": { "sid": 157, "code": 308, "name": "ул. Вавилова, д.17", "slots": 12, "subway_distance": 694, "district": 154, "departures": 1201, "arrivals": 1093, "in_out": 110.000000, "roundtrips": 10, "average": 20, "average_per_slot": 1.100000, "unique_rides": 34, "start": "2015-08-03 16:31:35", "start_month": 8, "lat": 55.701417, "lon": 37.579738 }, "geometry": { "type": "Point", "coordinates": [ 37.579738, 55.701417 ] } },
{ "type": "Feature", "properties": { "sid": 158, "code": 309, "name": "ул. Болотниковская (парк им. 70-ти летия Победы)", "slots": 12, "subway_distance": 1174, "district": 145, "departures": 1304, "arrivals": 1342, "in_out": 97.000000, "roundtrips": 33, "average": 14, "average_per_slot": 1.000000, "unique_rides": 40, "start": "2015-06-29 21:53:45", "start_month": 6, "lat": 55.665069, "lon": 37.571292 }, "geometry": { "type": "Point", "coordinates": [ 37.571292, 55.665069 ] } },
{ "type": "Feature", "properties": { "sid": 159, "code": 310, "name": "Ленинский пр-т, д.34\/1", "slots": 12, "subway_distance": 430, "district": 148, "departures": 1695, "arrivals": 1866, "in_out": 91.000000, "roundtrips": 26, "average": 11, "average_per_slot": 0.900000, "unique_rides": 56, "start": "2015-05-01 02:33:10", "start_month": 5, "lat": 55.707025, "lon": 37.578142 }, "geometry": { "type": "Point", "coordinates": [ 37.578142, 55.707025 ] } },
{ "type": "Feature", "properties": { "sid": 160, "code": 311, "name": "Ленинский пр-т, д.54", "slots": 12, "subway_distance": 1259, "district": 148, "departures": 2821, "arrivals": 2741, "in_out": 103.000000, "roundtrips": 22, "average": 19, "average_per_slot": 1.000000, "unique_rides": 34, "start": "2015-05-01 15:45:45", "start_month": 5, "lat": 55.697692, "lon": 37.560842 }, "geometry": { "type": "Point", "coordinates": [ 37.560842, 55.697692 ] } },
{ "type": "Feature", "properties": { "sid": 161, "code": 312, "name": "Ленинский пр-т, д.60\/2", "slots": 12, "subway_distance": 1320, "district": 148, "departures": 3233, "arrivals": 3167, "in_out": 102.000000, "roundtrips": 27, "average": 22, "average_per_slot": 1.000000, "unique_rides": 42, "start": "2015-05-08 19:02:59", "start_month": 5, "lat": 55.694967, "lon": 37.556189 }, "geometry": { "type": "Point", "coordinates": [ 37.556189, 55.694967 ] } },
{ "type": "Feature", "properties": { "sid": 162, "code": 313, "name": "Ленинский пр-т, д.66", "slots": 12, "subway_distance": 945, "district": 148, "departures": 1696, "arrivals": 1650, "in_out": 103.000000, "roundtrips": 34, "average": 11, "average_per_slot": 1.000000, "unique_rides": 47, "start": "2015-05-01 12:45:20", "start_month": 5, "lat": 55.691314, "lon": 37.550158 }, "geometry": { "type": "Point", "coordinates": [ 37.550158, 55.691314 ] } },
{ "type": "Feature", "properties": { "sid": 163, "code": 314, "name": "Ленинский пр-т, д.86", "slots": 12, "subway_distance": 1401, "district": 151, "departures": 2177, "arrivals": 2029, "in_out": 107.000000, "roundtrips": 30, "average": 17, "average_per_slot": 1.100000, "unique_rides": 39, "start": "2015-05-28 01:38:00", "start_month": 5, "lat": 55.678088, "lon": 37.529599 }, "geometry": { "type": "Point", "coordinates": [ 37.529599, 55.678088 ] } },
{ "type": "Feature", "properties": { "sid": 164, "code": 315, "name": "Ленинский пр-т, д.9, стр.3", "slots": 12, "subway_distance": 611, "district": 143, "departures": 2820, "arrivals": 2965, "in_out": 95.000000, "roundtrips": 24, "average": 18, "average_per_slot": 1.000000, "unique_rides": 55, "start": "2015-05-01 10:06:58", "start_month": 5, "lat": 55.724028, "lon": 37.605469 }, "geometry": { "type": "Point", "coordinates": [ 37.605469, 55.724028 ] } },
{ "type": "Feature", "properties": { "sid": 165, "code": 316, "name": "Ленинский пр-т, д.15А", "slots": 12, "subway_distance": 552, "district": 41, "departures": 4717, "arrivals": 4850, "in_out": 97.000000, "roundtrips": 29, "average": 36, "average_per_slot": 1.000000, "unique_rides": 54, "start": "2015-05-21 22:37:05", "start_month": 5, "lat": 55.721120, "lon": 37.600371 }, "geometry": { "type": "Point", "coordinates": [ 37.600371, 55.72112 ] } },
{ "type": "Feature", "properties": { "sid": 166, "code": 317, "name": "Ленинский пр-т, д.33", "slots": 12, "subway_distance": 402, "district": 41, "departures": 3556, "arrivals": 3726, "in_out": 95.000000, "roundtrips": 23, "average": 23, "average_per_slot": 1.000000, "unique_rides": 55, "start": "2015-05-01 09:58:29", "start_month": 5, "lat": 55.712075, "lon": 37.587744 }, "geometry": { "type": "Point", "coordinates": [ 37.587744, 55.712075 ] } },
{ "type": "Feature", "properties": { "sid": 167, "code": 318, "name": "Ленинский пр-т, д.45", "slots": 12, "subway_distance": 858, "district": 148, "departures": 1503, "arrivals": 1512, "in_out": 99.000000, "roundtrips": 15, "average": 14, "average_per_slot": 1.000000, "unique_rides": 41, "start": "2015-06-16 20:09:30", "start_month": 6, "lat": 55.703250, "lon": 37.572990 }, "geometry": { "type": "Point", "coordinates": [ 37.57299, 55.70325 ] } },
{ "type": "Feature", "properties": { "sid": 168, "code": 319, "name": "Ленинский пр-т, д.69", "slots": 15, "subway_distance": 998, "district": 148, "departures": 1529, "arrivals": 1437, "in_out": 106.000000, "roundtrips": 22, "average": 10, "average_per_slot": 1.100000, "unique_rides": 39, "start": "2015-05-01 16:08:09", "start_month": 5, "lat": 55.690314, "lon": 37.550828 }, "geometry": { "type": "Point", "coordinates": [ 37.550828, 55.690314 ] } },
{ "type": "Feature", "properties": { "sid": 169, "code": 320, "name": "Ленинский пр-т, д.73\/8", "slots": 15, "subway_distance": 820, "district": 148, "departures": 2607, "arrivals": 2428, "in_out": 107.000000, "roundtrips": 23, "average": 17, "average_per_slot": 1.100000, "unique_rides": 44, "start": "2015-05-01 14:16:39", "start_month": 5, "lat": 55.688289, "lon": 37.546697 }, "geometry": { "type": "Point", "coordinates": [ 37.546697, 55.688289 ] } },
{ "type": "Feature", "properties": { "sid": 170, "code": 321, "name": "Ленинский пр-т, д.79", "slots": 12, "subway_distance": 928, "district": 151, "departures": 2006, "arrivals": 1993, "in_out": 101.000000, "roundtrips": 27, "average": 16, "average_per_slot": 1.000000, "unique_rides": 30, "start": "2015-05-30 09:41:31", "start_month": 5, "lat": 55.683960, "lon": 37.540620 }, "geometry": { "type": "Point", "coordinates": [ 37.54062, 55.68396 ] } },
{ "type": "Feature", "properties": { "sid": 171, "code": 322, "name": "Ленинский пр-т, д.99", "slots": 12, "subway_distance": 1124, "district": 160, "departures": 1063, "arrivals": 1066, "in_out": 100.000000, "roundtrips": 14, "average": 13, "average_per_slot": 1.000000, "unique_rides": 45, "start": "2015-07-09 18:31:09", "start_month": 7, "lat": 55.670425, "lon": 37.520408 }, "geometry": { "type": "Point", "coordinates": [ 37.520408, 55.670425 ] } },
{ "type": "Feature", "properties": { "sid": 172, "code": 324, "name": "ул. Лобачевского, д.2, стр.1", "slots": 10, "subway_distance": 1367, "district": 159, "departures": 411, "arrivals": 455, "in_out": 90.000000, "roundtrips": 13, "average": 7, "average_per_slot": 0.900000, "unique_rides": 56, "start": "2015-06-04 19:17:12", "start_month": 6, "lat": 55.663915, "lon": 37.509229 }, "geometry": { "type": "Point", "coordinates": [ 37.509229, 55.663915 ] } },
{ "type": "Feature", "properties": { "sid": 173, "code": 325, "name": "ул. Болотниковская, д.34", "slots": 12, "subway_distance": 683, "district": 156, "departures": 935, "arrivals": 989, "in_out": 95.000000, "roundtrips": 28, "average": 10, "average_per_slot": 0.900000, "unique_rides": 34, "start": "2015-06-30 16:20:07", "start_month": 6, "lat": 55.659076, "lon": 37.594161 }, "geometry": { "type": "Point", "coordinates": [ 37.594161, 55.659076 ] } },
{ "type": "Feature", "properties": { "sid": 174, "code": 326, "name": "ул. Каховка, д.10\/12, к.1", "slots": 12, "subway_distance": 987, "district": 156, "departures": 1404, "arrivals": 1494, "in_out": 94.000000, "roundtrips": 23, "average": 15, "average_per_slot": 0.900000, "unique_rides": 32, "start": "2015-06-29 16:49:34", "start_month": 6, "lat": 55.653507, "lon": 37.580711 }, "geometry": { "type": "Point", "coordinates": [ 37.580711, 55.653507 ] } },
{ "type": "Feature", "properties": { "sid": 175, "code": 327, "name": "ул. Каховка, 9, к.1", "slots": 12, "subway_distance": 481, "district": 156, "departures": 1275, "arrivals": 1325, "in_out": 96.000000, "roundtrips": 30, "average": 14, "average_per_slot": 1.000000, "unique_rides": 40, "start": "2015-06-30 14:21:15", "start_month": 6, "lat": 55.651447, "lon": 37.589172 }, "geometry": { "type": "Point", "coordinates": [ 37.589172, 55.651447 ] } },
{ "type": "Feature", "properties": { "sid": 176, "code": 328, "name": "Балаклавский пр-т, д.16", "slots": 12, "subway_distance": 21, "district": 156, "departures": 1171, "arrivals": 1306, "in_out": 90.000000, "roundtrips": 34, "average": 13, "average_per_slot": 0.900000, "unique_rides": 48, "start": "2015-06-30 20:41:47", "start_month": 6, "lat": 55.641757, "lon": 37.604530 }, "geometry": { "type": "Point", "coordinates": [ 37.60453, 55.641757 ] } },
{ "type": "Feature", "properties": { "sid": 177, "code": 329, "name": "ул. Гарибальди, д.6, к.1", "slots": 12, "subway_distance": 1201, "district": 151, "departures": 746, "arrivals": 752, "in_out": 99.000000, "roundtrips": 13, "average": 12, "average_per_slot": 1.000000, "unique_rides": 32, "start": "2015-07-29 10:23:57", "start_month": 7, "lat": 55.675732, "lon": 37.537874 }, "geometry": { "type": "Point", "coordinates": [ 37.537874, 55.675732 ] } },
{ "type": "Feature", "properties": { "sid": 178, "code": 330, "name": "ул. Профсоюзная, д.7\/12", "slots": 12, "subway_distance": 318, "district": 154, "departures": 2564, "arrivals": 2574, "in_out": 100.000000, "roundtrips": 27, "average": 20, "average_per_slot": 1.000000, "unique_rides": 41, "start": "2015-05-20 22:03:10", "start_month": 5, "lat": 55.684347, "lon": 37.570182 }, "geometry": { "type": "Point", "coordinates": [ 37.570182, 55.684347 ] } },
{ "type": "Feature", "properties": { "sid": 179, "code": 331, "name": "ул. Профсоюзная, д.46, корп.1", "slots": 12, "subway_distance": 262, "district": 145, "departures": 1728, "arrivals": 1499, "in_out": 115.000000, "roundtrips": 21, "average": 13, "average_per_slot": 1.200000, "unique_rides": 41, "start": "2015-05-23 00:12:57", "start_month": 5, "lat": 55.673362, "lon": 37.557307 }, "geometry": { "type": "Point", "coordinates": [ 37.557307, 55.673362 ] } },
{ "type": "Feature", "properties": { "sid": 180, "code": 332, "name": "ул. Профсоюзная, д.58\/32, корп.2", "slots": 24, "subway_distance": 59, "district": 160, "departures": 5253, "arrivals": 4760, "in_out": 110.000000, "roundtrips": 19, "average": 40, "average_per_slot": 1.100000, "unique_rides": 33, "start": "2015-05-23 00:19:15", "start_month": 5, "lat": 55.669040, "lon": 37.552943 }, "geometry": { "type": "Point", "coordinates": [ 37.552943, 55.66904 ] } },
{ "type": "Feature", "properties": { "sid": 181, "code": 333, "name": "ул. Профсоюзная, д.61А", "slots": 12, "subway_distance": 32, "district": 145, "departures": 3133, "arrivals": 2917, "in_out": 107.000000, "roundtrips": 21, "average": 28, "average_per_slot": 1.100000, "unique_rides": 38, "start": "2015-06-10 20:50:22", "start_month": 6, "lat": 55.656261, "lon": 37.539688 }, "geometry": { "type": "Point", "coordinates": [ 37.539688, 55.656261 ] } },
{ "type": "Feature", "properties": { "sid": 182, "code": 334, "name": "ул. Профсоюзная, д.104", "slots": 12, "subway_distance": 22, "district": 98, "departures": 2978, "arrivals": 2572, "in_out": 116.000000, "roundtrips": 17, "average": 24, "average_per_slot": 1.200000, "unique_rides": 35, "start": "2015-05-28 15:30:37", "start_month": 5, "lat": 55.642010, "lon": 37.525620 }, "geometry": { "type": "Point", "coordinates": [ 37.52562, 55.64201 ] } },
{ "type": "Feature", "properties": { "sid": 183, "code": 335, "name": "ул. Профсоюзная, д.82, корп.1", "slots": 12, "subway_distance": 11, "district": 160, "departures": 1487, "arrivals": 1395, "in_out": 107.000000, "roundtrips": 10, "average": 17, "average_per_slot": 1.100000, "unique_rides": 38, "start": "2015-07-08 14:08:10", "start_month": 7, "lat": 55.656261, "lon": 37.539333 }, "geometry": { "type": "Point", "coordinates": [ 37.539333, 55.656261 ] } },
{ "type": "Feature", "properties": { "sid": 184, "code": 336, "name": "ул. Профсоюзная, д.88\/20", "slots": 12, "subway_distance": 674, "district": 98, "departures": 697, "arrivals": 671, "in_out": 104.000000, "roundtrips": 17, "average": 8, "average_per_slot": 1.000000, "unique_rides": 34, "start": "2015-07-09 17:38:49", "start_month": 7, "lat": 55.650684, "lon": 37.532020 }, "geometry": { "type": "Point", "coordinates": [ 37.53202, 55.650684 ] } },
{ "type": "Feature", "properties": { "sid": 185, "code": 337, "name": "ул. Академика Пилюгина, д.18", "slots": 12, "subway_distance": 1213, "district": 151, "departures": 951, "arrivals": 953, "in_out": 100.000000, "roundtrips": 25, "average": 10, "average_per_slot": 1.000000, "unique_rides": 38, "start": "2015-06-29 19:04:19", "start_month": 6, "lat": 55.668342, "lon": 37.534259 }, "geometry": { "type": "Point", "coordinates": [ 37.534259, 55.668342 ] } },
{ "type": "Feature", "properties": { "sid": 186, "code": 338, "name": "ул. Новаторов (пересечение с ул. Воронцовские Пруды)", "slots": 12, "subway_distance": 1353, "district": 160, "departures": 1904, "arrivals": 1917, "in_out": 99.000000, "roundtrips": 33, "average": 20, "average_per_slot": 1.000000, "unique_rides": 39, "start": "2015-06-29 19:37:12", "start_month": 6, "lat": 55.667076, "lon": 37.526493 }, "geometry": { "type": "Point", "coordinates": [ 37.526493, 55.667076 ] } },
{ "type": "Feature", "properties": { "sid": 187, "code": 339, "name": "ул. Обручева, д. 16, к.1", "slots": 12, "subway_distance": 1523, "district": 160, "departures": 1026, "arrivals": 1077, "in_out": 95.000000, "roundtrips": 25, "average": 11, "average_per_slot": 1.000000, "unique_rides": 29, "start": "2015-06-30 14:46:51", "start_month": 6, "lat": 55.658798, "lon": 37.514881 }, "geometry": { "type": "Point", "coordinates": [ 37.514881, 55.658798 ] } },
{ "type": "Feature", "properties": { "sid": 188, "code": 340, "name": "ул. Шаболовка, д.32", "slots": 12, "subway_distance": 82, "district": 41, "departures": 4525, "arrivals": 4548, "in_out": 99.000000, "roundtrips": 27, "average": 35, "average_per_slot": 1.000000, "unique_rides": 40, "start": "2015-05-22 02:47:49", "start_month": 5, "lat": 55.718027, "lon": 37.608648 }, "geometry": { "type": "Point", "coordinates": [ 37.608648, 55.718027 ] } },
{ "type": "Feature", "properties": { "sid": 189, "code": 341, "name": "ул. Орджоникидзе, д.11, стр.1\/2", "slots": 12, "subway_distance": 462, "district": 41, "departures": 2384, "arrivals": 2443, "in_out": 98.000000, "roundtrips": 26, "average": 18, "average_per_slot": 1.000000, "unique_rides": 45, "start": "2015-05-23 19:34:27", "start_month": 5, "lat": 55.709908, "lon": 37.594389 }, "geometry": { "type": "Point", "coordinates": [ 37.594389, 55.709908 ] } },
{ "type": "Feature", "properties": { "sid": 190, "code": 342, "name": "ул. Мосфильмовская, д.1, стр.4", "slots": 12, "subway_distance": 1583, "district": 67, "departures": 890, "arrivals": 898, "in_out": 99.000000, "roundtrips": 20, "average": 16, "average_per_slot": 1.000000, "unique_rides": 49, "start": "2015-08-05 00:25:31", "start_month": 8, "lat": 55.723348, "lon": 37.529504 }, "geometry": { "type": "Point", "coordinates": [ 37.529504, 55.723348 ] } },
{ "type": "Feature", "properties": { "sid": 191, "code": 343, "name": "ул. Косыгина, д.26", "slots": 12, "subway_distance": 290, "district": 148, "departures": 4901, "arrivals": 4861, "in_out": 101.000000, "roundtrips": 25, "average": 32, "average_per_slot": 1.000000, "unique_rides": 61, "start": "2015-05-01 00:49:22", "start_month": 5, "lat": 55.706436, "lon": 37.555253 }, "geometry": { "type": "Point", "coordinates": [ 37.555253, 55.706436 ] } },
{ "type": "Feature", "properties": { "sid": 192, "code": 344, "name": "ул. Косыгина, д.8, стр.2", "slots": 12, "subway_distance": 531, "district": 148, "departures": 2594, "arrivals": 2629, "in_out": 99.000000, "roundtrips": 36, "average": 17, "average_per_slot": 1.000000, "unique_rides": 63, "start": "2015-05-01 16:47:44", "start_month": 5, "lat": 55.706706, "lon": 37.564811 }, "geometry": { "type": "Point", "coordinates": [ 37.564811, 55.706706 ] } },
{ "type": "Feature", "properties": { "sid": 193, "code": 345, "name": "ул. Косыгина, д.2, стр.19", "slots": 12, "subway_distance": 503, "district": 148, "departures": 3413, "arrivals": 3621, "in_out": 94.000000, "roundtrips": 32, "average": 22, "average_per_slot": 0.900000, "unique_rides": 59, "start": "2015-05-01 00:29:44", "start_month": 5, "lat": 55.708347, "lon": 37.577367 }, "geometry": { "type": "Point", "coordinates": [ 37.577367, 55.708347 ] } },
{ "type": "Feature", "properties": { "sid": 194, "code": 346, "name": "ст.м.Ленинский проспект (южный вестибюль)", "slots": 12, "subway_distance": 16, "district": 148, "departures": 3245, "arrivals": 3408, "in_out": 95.000000, "roundtrips": 21, "average": 26, "average_per_slot": 1.000000, "unique_rides": 43, "start": "2015-05-27 16:27:52", "start_month": 5, "lat": 55.706740, "lon": 37.585310 }, "geometry": { "type": "Point", "coordinates": [ 37.58531, 55.70674 ] } },
{ "type": "Feature", "properties": { "sid": 195, "code": 347, "name": "ул. Шверника, д.13, корп.1", "slots": 12, "subway_distance": 960, "district": 154, "departures": 2294, "arrivals": 2352, "in_out": 98.000000, "roundtrips": 30, "average": 20, "average_per_slot": 1.000000, "unique_rides": 24, "start": "2015-06-10 17:35:17", "start_month": 6, "lat": 55.691394, "lon": 37.589305 }, "geometry": { "type": "Point", "coordinates": [ 37.589305, 55.691394 ] } },
{ "type": "Feature", "properties": { "sid": 196, "code": 348, "name": "ул. Мосфильмовская, д.17\/25", "slots": 12, "subway_distance": 2188, "district": 67, "departures": 1299, "arrivals": 1333, "in_out": 97.000000, "roundtrips": 30, "average": 16, "average_per_slot": 1.000000, "unique_rides": 39, "start": "2015-07-09 20:20:57", "start_month": 7, "lat": 55.716167, "lon": 37.517116 }, "geometry": { "type": "Point", "coordinates": [ 37.517116, 55.716167 ] } },
{ "type": "Feature", "properties": { "sid": 197, "code": 349, "name": "Университетский пр-т (напротив ГЗ МГУ)", "slots": 12, "subway_distance": 1390, "district": 67, "departures": 5377, "arrivals": 5330, "in_out": 101.000000, "roundtrips": 40, "average": 35, "average_per_slot": 1.000000, "unique_rides": 60, "start": "2015-05-01 15:15:52", "start_month": 5, "lat": 55.706203, "lon": 37.535522 }, "geometry": { "type": "Point", "coordinates": [ 37.535522, 55.706203 ] } },
{ "type": "Feature", "properties": { "sid": 198, "code": 350, "name": "ул. Вавилова, д.55\/7", "slots": 15, "subway_distance": 794, "district": 154, "departures": 4175, "arrivals": 4130, "in_out": 101.000000, "roundtrips": 25, "average": 27, "average_per_slot": 1.000000, "unique_rides": 33, "start": "2015-05-01 14:20:23", "start_month": 5, "lat": 55.691564, "lon": 37.562406 }, "geometry": { "type": "Point", "coordinates": [ 37.562406, 55.691564 ] } },
{ "type": "Feature", "properties": { "sid": 199, "code": 351, "name": "ул. Дмитрия Ульянова, д.20", "slots": 12, "subway_distance": 120, "district": 154, "departures": 5278, "arrivals": 5180, "in_out": 102.000000, "roundtrips": 27, "average": 34, "average_per_slot": 1.000000, "unique_rides": 33, "start": "2015-05-01 00:20:06", "start_month": 5, "lat": 55.688317, "lon": 37.572092 }, "geometry": { "type": "Point", "coordinates": [ 37.572092, 55.688317 ] } },
{ "type": "Feature", "properties": { "sid": 200, "code": 352, "name": "ул. Академика Хохлова (рядом с ГЗ МГУ)", "slots": 24, "subway_distance": 1138, "district": 67, "departures": 7671, "arrivals": 7521, "in_out": 102.000000, "roundtrips": 25, "average": 50, "average_per_slot": 1.000000, "unique_rides": 22, "start": "2015-05-01 00:13:47", "start_month": 5, "lat": 55.703177, "lon": 37.528497 }, "geometry": { "type": "Point", "coordinates": [ 37.528497, 55.703177 ] } },
{ "type": "Feature", "properties": { "sid": 201, "code": 353, "name": "ул. Криворожская, д.33Г", "slots": 12, "subway_distance": 147, "district": 84, "departures": 983, "arrivals": 939, "in_out": 105.000000, "roundtrips": 31, "average": 9, "average_per_slot": 1.000000, "unique_rides": 42, "start": "2015-06-17 08:58:24", "start_month": 6, "lat": 55.671798, "lon": 37.608993 }, "geometry": { "type": "Point", "coordinates": [ 37.608993, 55.671798 ] } },
{ "type": "Feature", "properties": { "sid": 202, "code": 354, "name": "Ломоносовский пр-т, д.43\/40", "slots": 12, "subway_distance": 2540, "district": 67, "departures": 1944, "arrivals": 2046, "in_out": 95.000000, "roundtrips": 37, "average": 16, "average_per_slot": 1.000000, "unique_rides": 37, "start": "2015-06-02 00:27:25", "start_month": 6, "lat": 55.710413, "lon": 37.507289 }, "geometry": { "type": "Point", "coordinates": [ 37.507289, 55.710413 ] } },
{ "type": "Feature", "properties": { "sid": 203, "code": 355, "name": "Ломоносовский пр-т, д.29, корп.3", "slots": 12, "subway_distance": 1824, "district": 67, "departures": 3476, "arrivals": 3655, "in_out": 95.000000, "roundtrips": 27, "average": 23, "average_per_slot": 1.000000, "unique_rides": 36, "start": "2015-05-01 06:47:04", "start_month": 5, "lat": 55.705293, "lon": 37.514291 }, "geometry": { "type": "Point", "coordinates": [ 37.514291, 55.705293 ] } },
{ "type": "Feature", "properties": { "sid": 204, "code": 356, "name": "Ломоносовский пр-т (дублер), пересечение с ул. Менделеева", "slots": 12, "subway_distance": 1178, "district": 67, "departures": 2881, "arrivals": 2464, "in_out": 117.000000, "roundtrips": 25, "average": 19, "average_per_slot": 1.200000, "unique_rides": 46, "start": "2015-05-01 00:12:21", "start_month": 5, "lat": 55.701742, "lon": 37.522672 }, "geometry": { "type": "Point", "coordinates": [ 37.522672, 55.701742 ] } },
{ "type": "Feature", "properties": { "sid": 205, "code": 357, "name": "Ломоносовский пр-т (дублер), д.27", "slots": 12, "subway_distance": 934, "district": 67, "departures": 1722, "arrivals": 1496, "in_out": 115.000000, "roundtrips": 20, "average": 11, "average_per_slot": 1.200000, "unique_rides": 40, "start": "2015-05-02 15:17:22", "start_month": 5, "lat": 55.699342, "lon": 37.523769 }, "geometry": { "type": "Point", "coordinates": [ 37.523769, 55.699342 ] } },
{ "type": "Feature", "properties": { "sid": 206, "code": 358, "name": "Ломоносовский пр-т (дублер), пересечение с ул. Лебедева", "slots": 12, "subway_distance": 664, "district": 67, "departures": 3265, "arrivals": 3105, "in_out": 105.000000, "roundtrips": 28, "average": 21, "average_per_slot": 1.100000, "unique_rides": 36, "start": "2015-05-01 15:04:28", "start_month": 5, "lat": 55.698436, "lon": 37.528489 }, "geometry": { "type": "Point", "coordinates": [ 37.528489, 55.698436 ] } },
{ "type": "Feature", "properties": { "sid": 207, "code": 359, "name": "Ломоносовский пр-т (дублер, напротив д.1, стр.64)", "slots": 18, "subway_distance": 127, "district": 67, "departures": 4362, "arrivals": 3099, "in_out": 141.000000, "roundtrips": 14, "average": 29, "average_per_slot": 1.400000, "unique_rides": 41, "start": "2015-05-01 00:06:13", "start_month": 5, "lat": 55.694653, "lon": 37.534131 }, "geometry": { "type": "Point", "coordinates": [ 37.534131, 55.694653 ] } },
{ "type": "Feature", "properties": { "sid": 208, "code": 360, "name": "пл. Джавахарлала Неру, д.1", "slots": 18, "subway_distance": 49, "district": 67, "departures": 10722, "arrivals": 9783, "in_out": 110.000000, "roundtrips": 17, "average": 70, "average_per_slot": 1.100000, "unique_rides": 28, "start": "2015-05-01 00:15:37", "start_month": 5, "lat": 55.693169, "lon": 37.535269 }, "geometry": { "type": "Point", "coordinates": [ 37.535269, 55.693169 ] } },
{ "type": "Feature", "properties": { "sid": 209, "code": 361, "name": "Ломоносовский пр-т, д.2\/62, стр.8", "slots": 12, "subway_distance": 966, "district": 148, "departures": 1553, "arrivals": 1585, "in_out": 98.000000, "roundtrips": 18, "average": 13, "average_per_slot": 1.000000, "unique_rides": 46, "start": "2015-06-02 06:31:29", "start_month": 6, "lat": 55.684712, "lon": 37.552045 }, "geometry": { "type": "Point", "coordinates": [ 37.552045, 55.684712 ] } },
{ "type": "Feature", "properties": { "sid": 210, "code": 362, "name": "Нахимовский пр-т, д.46", "slots": 15, "subway_distance": 84, "district": 154, "departures": 3133, "arrivals": 3214, "in_out": 97.000000, "roundtrips": 27, "average": 21, "average_per_slot": 1.000000, "unique_rides": 42, "start": "2015-05-01 15:52:15", "start_month": 5, "lat": 55.678678, "lon": 37.562050 }, "geometry": { "type": "Point", "coordinates": [ 37.56205, 55.678678 ] } },
{ "type": "Feature", "properties": { "sid": 211, "code": 363, "name": "Нахимовский пр-т, д.24", "slots": 12, "subway_distance": 1409, "district": 158, "departures": 1958, "arrivals": 1957, "in_out": 100.000000, "roundtrips": 22, "average": 15, "average_per_slot": 1.000000, "unique_rides": 33, "start": "2015-05-25 21:13:14", "start_month": 5, "lat": 55.671656, "lon": 37.582721 }, "geometry": { "type": "Point", "coordinates": [ 37.582721, 55.671656 ] } },
{ "type": "Feature", "properties": { "sid": 212, "code": 364, "name": "ул. Марии Ульяновой, д.16", "slots": 12, "subway_distance": 1021, "district": 151, "departures": 1893, "arrivals": 1942, "in_out": 97.000000, "roundtrips": 41, "average": 14, "average_per_slot": 1.000000, "unique_rides": 38, "start": "2015-05-21 17:53:13", "start_month": 5, "lat": 55.683724, "lon": 37.519887 }, "geometry": { "type": "Point", "coordinates": [ 37.519887, 55.683724 ] } },
{ "type": "Feature", "properties": { "sid": 213, "code": 365, "name": "ул. Гарибальди, д.1А", "slots": 12, "subway_distance": 1440, "district": 151, "departures": 1565, "arrivals": 1469, "in_out": 107.000000, "roundtrips": 19, "average": 12, "average_per_slot": 1.100000, "unique_rides": 44, "start": "2015-05-25 17:52:25", "start_month": 5, "lat": 55.678715, "lon": 37.532632 }, "geometry": { "type": "Point", "coordinates": [ 37.532632, 55.678715 ] } },
{ "type": "Feature", "properties": { "sid": 214, "code": 367, "name": "Севастопольский пр-т, д.28, корп.4", "slots": 12, "subway_distance": 1603, "district": 145, "departures": 1466, "arrivals": 1581, "in_out": 93.000000, "roundtrips": 29, "average": 13, "average_per_slot": 0.900000, "unique_rides": 32, "start": "2015-06-10 18:32:25", "start_month": 6, "lat": 55.661945, "lon": 37.576526 }, "geometry": { "type": "Point", "coordinates": [ 37.576526, 55.661945 ] } },
{ "type": "Feature", "properties": { "sid": 215, "code": 368, "name": "Симферопольский б-р, д.4", "slots": 12, "subway_distance": 350, "district": 156, "departures": 960, "arrivals": 991, "in_out": 97.000000, "roundtrips": 35, "average": 9, "average_per_slot": 1.000000, "unique_rides": 40, "start": "2015-06-16 22:31:20", "start_month": 6, "lat": 55.659191, "lon": 37.608093 }, "geometry": { "type": "Point", "coordinates": [ 37.608093, 55.659191 ] } },
{ "type": "Feature", "properties": { "sid": 216, "code": 369, "name": "ул. Удальцова, д.2", "slots": 12, "subway_distance": 1029, "district": 159, "departures": 1946, "arrivals": 1923, "in_out": 101.000000, "roundtrips": 33, "average": 15, "average_per_slot": 1.000000, "unique_rides": 42, "start": "2015-05-21 18:33:47", "start_month": 5, "lat": 55.671388, "lon": 37.519698 }, "geometry": { "type": "Point", "coordinates": [ 37.519698, 55.671388 ] } },
{ "type": "Feature", "properties": { "sid": 217, "code": 370, "name": "ул. Воронцовские Пруды, д.3", "slots": 12, "subway_distance": 758, "district": 160, "departures": 2627, "arrivals": 2597, "in_out": 101.000000, "roundtrips": 44, "average": 20, "average_per_slot": 1.000000, "unique_rides": 36, "start": "2015-05-23 00:42:50", "start_month": 5, "lat": 55.664620, "lon": 37.537340 }, "geometry": { "type": "Point", "coordinates": [ 37.53734, 55.66462 ] } },
{ "type": "Feature", "properties": { "sid": 218, "code": 371, "name": "ул. Новочерёмушкинская, д.71\/32", "slots": 12, "subway_distance": 992, "district": 145, "departures": 2313, "arrivals": 2343, "in_out": 99.000000, "roundtrips": 19, "average": 20, "average_per_slot": 1.000000, "unique_rides": 23, "start": "2015-06-10 19:57:26", "start_month": 6, "lat": 55.660896, "lon": 37.559341 }, "geometry": { "type": "Point", "coordinates": [ 37.559341, 55.660896 ] } },
{ "type": "Feature", "properties": { "sid": 219, "code": 372, "name": "ул. Каховка, д.29А", "slots": 12, "subway_distance": 1686, "district": 145, "departures": 2169, "arrivals": 2250, "in_out": 96.000000, "roundtrips": 22, "average": 19, "average_per_slot": 1.000000, "unique_rides": 34, "start": "2015-06-10 20:55:35", "start_month": 6, "lat": 55.656726, "lon": 37.570446 }, "geometry": { "type": "Point", "coordinates": [ 37.570446, 55.656726 ] } },
{ "type": "Feature", "properties": { "sid": 220, "code": 373, "name": "ул. Азовская, д.24, корп.2", "slots": 12, "subway_distance": 22, "district": 156, "departures": 3177, "arrivals": 3123, "in_out": 102.000000, "roundtrips": 18, "average": 32, "average_per_slot": 1.000000, "unique_rides": 27, "start": "2015-06-25 15:19:10", "start_month": 6, "lat": 55.652451, "lon": 37.596253 }, "geometry": { "type": "Point", "coordinates": [ 37.596253, 55.652451 ] } },
{ "type": "Feature", "properties": { "sid": 221, "code": 374, "name": "ул. Обручева, д.33А", "slots": 12, "subway_distance": 974, "district": 145, "departures": 1607, "arrivals": 1511, "in_out": 106.000000, "roundtrips": 15, "average": 14, "average_per_slot": 1.100000, "unique_rides": 23, "start": "2015-06-11 15:20:14", "start_month": 6, "lat": 55.651252, "lon": 37.552978 }, "geometry": { "type": "Point", "coordinates": [ 37.552978, 55.651252 ] } },
{ "type": "Feature", "properties": { "sid": 222, "code": 375, "name": "ул. Обручева, д.65\/54", "slots": 12, "subway_distance": 1639, "district": 145, "departures": 2150, "arrivals": 2145, "in_out": 100.000000, "roundtrips": 27, "average": 19, "average_per_slot": 1.000000, "unique_rides": 29, "start": "2015-06-10 21:07:45", "start_month": 6, "lat": 55.650211, "lon": 37.564201 }, "geometry": { "type": "Point", "coordinates": [ 37.564201, 55.650211 ] } },
{ "type": "Feature", "properties": { "sid": 223, "code": 376, "name": "Балаклавский пр-т, д.34, корп.1", "slots": 12, "subway_distance": 1195, "district": 156, "departures": 761, "arrivals": 841, "in_out": 90.000000, "roundtrips": 39, "average": 8, "average_per_slot": 0.900000, "unique_rides": 51, "start": "2015-06-25 19:00:54", "start_month": 6, "lat": 55.645488, "lon": 37.582171 }, "geometry": { "type": "Point", "coordinates": [ 37.582171, 55.645488 ] } },
{ "type": "Feature", "properties": { "sid": 224, "code": 377, "name": "ст.м.Чертановская", "slots": 12, "subway_distance": 84, "district": 83, "departures": 2705, "arrivals": 2888, "in_out": 94.000000, "roundtrips": 49, "average": 18, "average_per_slot": 0.900000, "unique_rides": 42, "start": "2015-05-01 15:45:42", "start_month": 5, "lat": 55.639828, "lon": 37.604772 }, "geometry": { "type": "Point", "coordinates": [ 37.604772, 55.639828 ] } },
{ "type": "Feature", "properties": { "sid": 225, "code": 378, "name": "мкрн. Чертаново Северное, д.4, корп.401", "slots": 12, "subway_distance": 801, "district": 83, "departures": 2166, "arrivals": 2243, "in_out": 97.000000, "roundtrips": 51, "average": 14, "average_per_slot": 1.000000, "unique_rides": 40, "start": "2015-05-04 13:01:29", "start_month": 5, "lat": 55.636711, "lon": 37.594467 }, "geometry": { "type": "Point", "coordinates": [ 37.594467, 55.636711 ] } },
{ "type": "Feature", "properties": { "sid": 226, "code": 379, "name": "ул. Введенского, д.13А", "slots": 12, "subway_distance": 870, "district": 98, "departures": 1840, "arrivals": 1874, "in_out": 98.000000, "roundtrips": 41, "average": 12, "average_per_slot": 1.000000, "unique_rides": 32, "start": "2015-05-01 14:42:03", "start_month": 5, "lat": 55.642389, "lon": 37.541047 }, "geometry": { "type": "Point", "coordinates": [ 37.541047, 55.642389 ] } },
{ "type": "Feature", "properties": { "sid": 227, "code": 380, "name": "ул. Миклухо-Маклая, д.6", "slots": 12, "subway_distance": 1465, "district": 160, "departures": 1627, "arrivals": 1601, "in_out": 102.000000, "roundtrips": 39, "average": 13, "average_per_slot": 1.000000, "unique_rides": 36, "start": "2015-05-28 20:27:04", "start_month": 5, "lat": 55.653506, "lon": 37.500151 }, "geometry": { "type": "Point", "coordinates": [ 37.500151, 55.653506 ] } },
{ "type": "Feature", "properties": { "sid": 228, "code": 381, "name": "ул. Академика Волгина, д.21", "slots": 12, "subway_distance": 1007, "district": 160, "departures": 1280, "arrivals": 1237, "in_out": 103.000000, "roundtrips": 14, "average": 13, "average_per_slot": 1.000000, "unique_rides": 31, "start": "2015-06-25 15:20:50", "start_month": 6, "lat": 55.648343, "lon": 37.512929 }, "geometry": { "type": "Point", "coordinates": [ 37.512929, 55.648343 ] } },
{ "type": "Feature", "properties": { "sid": 229, "code": 382, "name": "ул. Профсоюзная, д.91 (ст.м.Беляево)", "slots": 12, "subway_distance": 42, "district": 98, "departures": 2781, "arrivals": 2322, "in_out": 120.000000, "roundtrips": 26, "average": 19, "average_per_slot": 1.200000, "unique_rides": 38, "start": "2015-05-08 19:37:07", "start_month": 5, "lat": 55.641944, "lon": 37.526619 }, "geometry": { "type": "Point", "coordinates": [ 37.526619, 55.641944 ] } },
{ "type": "Feature", "properties": { "sid": 230, "code": 383, "name": "ул. Миклухо-Маклая, д.44 (вход в Битцевский парк)", "slots": 12, "subway_distance": 1134, "district": 98, "departures": 3118, "arrivals": 3229, "in_out": 97.000000, "roundtrips": 53, "average": 21, "average_per_slot": 1.000000, "unique_rides": 44, "start": "2015-05-01 17:51:00", "start_month": 5, "lat": 55.637608, "lon": 37.542572 }, "geometry": { "type": "Point", "coordinates": [ 37.542572, 55.637608 ] } },